"TIPO_RECURSO","NM_FANTAS","CNPJ","RZ_SOCIAL","CATEGORIA ","DDD","TELEFONE","EMAIL","UF","CD_UF","NM_RGI","CD_RGIMED","NM_RGINT","CD_RGINT","NM_MESO","CD_MESO","NM_MICRO","CD_MICRO","MUNIC","CD_MUNIC","LAT","LONG","ENDERECO","OBS","VALIDC","FONTE"
"ASSOCIACOES_AQUICULTORES","ABCC","13.792.312/0001-27","ASSOCIACAO BRASILEIRA DE CRIADORES DE CAMARAO","ASSOCIAÇÃO DE CRIADORES DE CAMARÃO ","84","3231-6291","abccam@abccam.com.br","RN",24,"NATAL",240001,"NATAL",2401,"LESTE POTIGUAR",2404,"NATAL",24018,"NATAL",2408102,-5.84808,-35.21784,"R ALFREDO PEGADO CORTEZ, 1858, CANDELARIA","ENCONTRADO","IDENTIFICADO","PLAN_LEVANTAMENTO"
"ASSOCIACOES_AQUICULTORES","ASSOCIACAO CATARINENSE DE CRIADORES DE CAMARAO (ACCC)","03.753.296/0001-00","ASSOCIACAO CATARINENSE DE CRIADORES DE CAMARAO ACCC","ASSOCIAÇÃO DE CRIADORES DE CAMARÃO ",,,,"SC",42,"TUBARAO",420003,"CRICIUMA",4202,"SUL CATARINENSE",4206,"TUBARAO",42018,"LAGUNA",4209409,-28.48171,-48.78430,"GUSTAVO RICHARD 550, SL 8, CENTRO, LAGUNA","ENCONTRADO","IDENTIFICADO","PLAN_LEVANTAMENTO"
"ASSOCIACOES_AQUICULTORES","ASSOCIACAO CEARENSE DE AQUICULTORES - ACEAQ","02.692.241/0001-74","ASSOCIACAO CEARENSE DE AQUICULTORES ACEAQ","ASSOCIAÇÃO DE AQUICULTORES","85","3272-9219","aceaq@hotmail.com","CE",23,"FORTALEZA",230001,"FORTALEZA",2301,"METROPOLITANA DE FORTALEZA",2303,"FORTALEZA",23016,"FORTALEZA",2304400,-3.75262,-38.51114,"RUA SILVA PAULET, 3279, BLOCO B - SALA 03","ENCONTRADO","IDENTIFICADO","PLAN_LEVANTAMENTO"
"ASSOCIACOES_AQUICULTORES","ACCC","06.028.649/0001-05","ASSOCIACAO CEARENSE DE CRIADORES DE CAMARAO","ASSOCIAÇÃO DE CRIADORES DE CAMARÃO ","85","3253-5432",,"CE",23,"FORTALEZA",230001,"FORTALEZA",2301,"METROPOLITANA DE FORTALEZA",2303,"FORTALEZA",23016,"FORTALEZA",2304400,-3.74083,-38.50884,"AV BARAO DE STUDART 1980, SL 2, ALDEOTA, FORTALEZA","ENCONTRADO","IDENTIFICADO","PLAN_LEVANTAMENTO"
"ASSOCIACOES_AQUICULTORES","ASSOCIACAO CEARENSE DOS CRIADORES E EXPORTADORES DE CAMARAO","04.359.266/0001-86","ASSOCIACAO CEARENSE DOS CRIADORES E EXPORTADORES DE CAMARAO","ASSOCIAÇÃO DE CRIADORES DE CAMARÃO ",,,,"CE",23,"FORTALEZA",230001,"FORTALEZA",2301,"METROPOLITANA DE FORTALEZA",2303,"FORTALEZA",23016,"FORTALEZA",2304400,-3.72587,-38.52616,"GENERAL BEZERRIL, SN, SALA 11, CENTRO","NAO_ENCONTRADO","LOCALIZACAO_APROXIMADA","PLAN_LEVANTAMENTO"
"ASSOCIACOES_AQUICULTORES","ASPECAN","01.120.295/0001-00","ASSOCIACAO COM DOS PEQUENOS PRODUTORES DE CAMARAO II","ASSOCIAÇÃO DE CRIADORES DE CAMARÃO ",,,,"CE",23,"CANINDE",230004,"FORTALEZA",2301,"NORTE CEARENSE",2302,"CANINDE",23012,"CANINDE",2302800,-4.30891,-39.19485,"LOC FAZ CAMARAO II, S/N, IPUEIRA DOS GOMES","NAO_ENCONTRADO","LOCALIZACAO_APROXIMADA","PLAN_LEVANTAMENTO"
"ASSOCIACOES_AQUICULTORES","ASSOCIACAO COMUNITARIA DE DESENVOLVIMENTO SOCIAL E AGRARIO DOS PEQUENOS AGRICULTORES FAMILIARES E EMPREEDEDORES FAMILIARES RURAIS","20.274.868/0001-97","ASSOCIACAO COMUNITARIA DE DESENVOLVIMENTO SOCIAL E AGRARIO DOS PEQUENOS AGRICULTORES FAMILIARES E EMPREEDEDORES FAMILIIARES RURAIS","ASSOCIAÇÃO DE CRIADORES DE CAMARÃO ","82","9114-3385",,"AL",27,"ARAPIRACA",270007,"ARAPIRACA",2702,"AGRESTE ALAGOANO",2702,"TRAIPU",27007,"OLHO D AGUA GRANDE",2705903,-10.05766,-36.81042,"SIT POVOADO CAMAROES, SN, ZONA RURAL","NAO_ENCONTRADO","MUNICIPIO","PLAN_LEVANTAMENTO"
"ASSOCIACOES_AQUICULTORES","ACCCVF","29.793.418/0001-85","ASSOCIACAO COMUNITARIA DOS CRIADORES CAMARAO DE VOLTA DO RIO E FAROL","ASSOCIAÇÃO DE CRIADORES DE CAMARÃO ","88","9663-7324",,"CE",23,"ACARAU",230017,"SOBRAL",2306,"NOROESTE CEARENSE",2301,"LITORAL DE CAMOCIM E ACARAU",23001,"ACARAU",2300200,-2.89876,-40.11933,"VILA VOLTA DO RIO, SN, ZONA RURAL","NAO_ENCONTRADO","MUNICIPIO","PLAN_LEVANTAMENTO"
"ASSOCIACOES_AQUICULTORES","ASSOCIACAO COMUNITARIA DOS CRIADORES DE CAMARAO DO BARRO VERMELHO","04.740.329/0001-40","ASSOCIACAO COMUNITARIA DOS CRIADORES DE CAMARAO DO BARRO VERMELHO","ASSOCIAÇÃO DE CRIADORES DE CAMARÃO ",,,,"CE",23,"ARACATI",230008,"QUIXADA",2302,"JAGUARIBE",2305,"LITORAL DE ARACATI",23022,"FORTIM",2304459,-4.41068,-37.88707,"BARRO VERMELHO, SN, BARRO VERMELHO","NAO_ENCONTRADO","LOCALIZACAO_APROXIMADA","PLAN_LEVANTAMENTO"
"ASSOCIACOES_AQUICULTORES","APPRCC","03.557.481/0001-29","ASSOCIACAO COMUNITARIA DOS PEQUENOS PRODUTORES RURAIS DA COVA DO CAMARAO","ASSOCIAÇÃO DE CRIADORES DE CAMARÃO ",,,,"BA",29,"RIBEIRA DO POMBAL",290025,"PAULO AFONSO",2909,"NORDESTE BAIANO",2904,"RIBEIRA DO POMBAL",29015,"RIBEIRA DO POMBAL",2926608,-10.83916,-38.54004,"COVA DO CAMARAO, S/N, ZONA RURAL","NAO_ENCONTRADO","MUNICIPIO","PLAN_LEVANTAMENTO"
"ASSOCIACOES_AQUICULTORES","AAFACA","13.383.676/0001-53","ASSOCIACAO DE AGRICULTORES E AGRICULTORAS FAMILIARES DE CAMARAO BARREIROS PE","ASSOCIAÇÃO DE CRIADORES DE CAMARÃO ","81","3675-1280",,"PE",26,"BARREIROS - SIRINHAEM",260007,"RECIFE",2601,"MATA PERNAMBUCANA",2604,"MATA MERIDIONAL PERNAMBUCANA",26015,"BARREIROS",2601409,-8.81508,-35.19309,"BOM JARDIM, SN, COMUNIDADE CAMARAO","NAO_ENCONTRADO","MUNICIPIO","PLAN_LEVANTAMENTO"
"ASSOCIACOES_AQUICULTORES","ASSOCIACAO DE CRIADORES DE CAMARAO EM GAIOLAS","01.417.603/0001-56","ASSOCIACAO DE CRIADORES DE CAMARAO EM GAIOLAS","ASSOCIAÇÃO DE CRIADORES DE CAMARÃO ",,,,"BA",29,"VALENCA",290005,"SANTO ANTONIO DE JESUS",2902,"SUL BAIANO",2907,"VALENCA",29030,"ITUBERA",2917300,-13.73581,-39.14681,"POVOADO DE TAUNA, SN, SEDE","NAO_ENCONTRADO","MUNICIPIO","PLAN_LEVANTAMENTO"
"ASSOCIACOES_AQUICULTORES","ACCMGA","04.820.104/0001-01","ASSOCIACAO DE CRIADORES DE CAMARAO MARINHO DE SENADOR GEORGINO AVELINO","ASSOCIAÇÃO DE CRIADORES DE CAMARÃO ",,,,"RN",24,"NATAL",240001,"NATAL",2401,"LESTE POTIGUAR",2404,"LITORAL SUL",24019,"SENADOR GEORGINO AVELINO",2413201,-6.14632,-35.14465,"SANTO ANTONIO, S/N, CENTRO","NAO_ENCONTRADO","MUNICIPIO","PLAN_LEVANTAMENTO"
"ASSOCIACOES_AQUICULTORES","ACCN","09.686.519/0001-40","ASSOCIACAO DOS CARCINICULTORES DA COSTA NEGRA","ASSOCIAÇÃO DE CRIADORES DE CAMARÃO ","88","3661-1058",,"CE",23,"ACARAU",230017,"SOBRAL",2306,"NOROESTE CEARENSE",2301,"LITORAL DE CAMOCIM E ACARAU",23001,"ACARAU",2300200,-2.88447,-40.12055,"R. EXPEDITO FARIAS, 123 - 105 - CENTRO","ENCONTRADO","IDENTIFICADO","PLAN_LEVANTAMENTO"
"ASSOCIACOES_AQUICULTORES","ACPB","24.742.172/0001-07","ASSOCIACAO DOS CARCINICULTORES DA PARAIBA","ASSOCIAÇÃO DE CRIADORES DE CAMARÃO ","83","9881-4065",,"PB",25,"ITABAIANA",250004,"JOAO PESSOA",2501,"AGRESTE PARAIBANO",2503,"ITABAIANA",25018,"SALGADO DE SAO FELIX",2513109,-7.35547,-35.43502,"R. PREF. JOSE SILVEIRA, 37","ENCONTRADO","IDENTIFICADO","PLAN_LEVANTAMENTO"
"ASSOCIACOES_AQUICULTORES","ACC","06.275.151/0001-39","ASSOCIACAO DOS CARCINICULTORES DE CAMAMU","ASSOCIAÇÃO DE CRIADORES DE CAMARÃO ","73","2552-2105",,"BA",29,"VALENCA",290005,"SANTO ANTONIO DE JESUS",2902,"SUL BAIANO",2907,"VALENCA",29030,"CAMAMU",2905800,-13.94435,-39.10459,"RODOVIA CAMAMU X TRAVESSAO BA 001, KM 3","NAO_ENCONTRADO","MUNICIPIO","PLAN_LEVANTAMENTO"
"ASSOCIACOES_AQUICULTORES","ACES-ASSOCIACAO DOS CARCINICULTORES DO ESTADO D SERGIPE","06.081.477/0001-25","ASSOCIACAO DOS CARCINICULTORES DO ESTADO DE SERGIPE","ASSOCIAÇÃO DE CRIADORES DE CAMARÃO ","79","2244-4200","aces@infonet.com.br","SE",28,"ARACAJU",280001,"ARACAJU",2801,"LESTE SERGIPANO",2803,"ARACAJU",28011,"ARACAJU",2800308,-10.92250,-37.04773,"RUA CAMPOS 281, SL 10, SAO JOSE","ENCONTRADO","IDENTIFICADO","PLAN_LEVANTAMENTO"
"ASSOCIACOES_AQUICULTORES","CAMARAO BRASIL","04.821.114/0001-53","ASSOCIACAO DOS CARCINICULTORES DO ESTADO DO MARANHAO","SD",,,,"MA",21,"SAO LUIS",210001,"SAO LUIS",2101,"NORTE MARANHENSE",2101,"AGLOMERACAO URBANA DE SAO LUIS",21002,"SAO LUIS",2111300,-2.52438,-44.29388,"RUA SILVA JARDIM, 111 - CENTRO","ENCONTRADO","IDENTIFICADO","PLAN_LEVANTAMENTO"
"ASSOCIACOES_AQUICULTORES","ACP","12.573.868/0001-60","ASSOCIACAO DOS CARCINICULTORES E PISCICULTORES DO ESTADO DA PARAIBA","ASSOCIAÇÃO DE CRIADORES DE CAMARÃO ","83","3048-6050",,"PB",25,"JOAO PESSOA",250001,"JOAO PESSOA",2501,"MATA PARAIBANA",2504,"JOAO PESSOA",25022,"JOAO PESSOA",2507507,-7.13008,-34.87180,"RUA ENGENHEIRO LEONARDO ARCOVERDE, 320 - JAGUARIBE","ENCONTRADO","IDENTIFICADO","PLAN_LEVANTAMENTO"
"ASSOCIACOES_AQUICULTORES","AMONCI","00.990.381/0001-01","ASSOCIACAO DOS CARCINICULTORES GURGURI E ADJACENCIAS ACGA","ASSOCIAÇÃO DE CRIADORES DE CAMARÃO ","85","9999-3425",,"CE",23,"ARACATI",230008,"QUIXADA",2302,"JAGUARIBE",2305,"LITORAL DE ARACATI",23022,"FORTIM",2304459,-4.50360,-37.80027,"VILA GURGURI, 46, SETOR CE 040, ZONA RURAL","NAO_ENCONTRADO","LOCALIZACAO_APROXIMADA","PLAN_LEVANTAMENTO"
"ASSOCIACOES_AQUICULTORES","ACCBA","26.525.284/0001-23","ASSOCIACAO DOS CRIADORES DE CAMARAO DA BAHIA","ASSOCIAÇÃO DE CRIADORES DE CAMARÃO ","71","3484-1229","accba.camarao@gmail.com","BA",29,"SALVADOR",290001,"SALVADOR",2901,"METROPOLITANA DE SALVADOR",2905,"SALVADOR",29021,"SALVADOR",2927408,-12.98372,-38.46505,"R. DA ALFAZEMA, 761, EDIF IGUATEMI BUS E FLAT SALA 605, CAMINHO DAS ARVORES","ENCONTRADO","IDENTIFICADO","PLAN_LEVANTAMENTO"
"ASSOCIACOES_AQUICULTORES","ACCBA","07.050.568/0001-66","ASSOCIACAO DOS CRIADORES DE CAMARAO DA BAHIA","ASSOCIAÇÃO DE CRIADORES DE CAMARÃO ","71","2356-6122",,"BA",29,"SALVADOR",290001,"SALVADOR",2901,"METROPOLITANA DE SALVADOR",2905,"SALVADOR",29021,"SALVADOR",2927408,-13.00353,-38.50802,"ADHEMAR DE BARROS 967, ED BAHIA PESCA","ENCONTRADO","IDENTIFICADO","PLAN_LEVANTAMENTO"
"ASSOCIACOES_AQUICULTORES","ACCI","05.286.624/0001-30","ASSOCIACAO DOS CRIADORES DE CAMARAO DE ICAPUI","ASSOCIAÇÃO DE CRIADORES DE CAMARÃO ","88","4321-1143",,"CE",26,"ARACATI",230008,"QUIXADA",2302,"JAGUARIBE",2305,"LITORAL DE ARACATI",23022,"ICAPUI",2305357,-4.71550,-37.35498,"LOC. BARRA GRANDE, SN, BARRA GRANDE","NAO_ENCONTRADO","MUNICIPIO","PLAN_LEVANTAMENTO"
"ASSOCIACOES_AQUICULTORES","ACCVP","06.138.274/0001-28","ASSOCIACAO DOS CRIADORES DE CAMARAO DO VALE DO PARAIBA","ASSOCIAÇÃO DE CRIADORES DE CAMARÃO ",,,,"PB",25,"ITABAIANA",250004,"JOAO PESSOA",2501,"AGRESTE PARAIBANO",2503,"ITABAIANA",25018,"ITABAIANA",2506905,-7.32967,-35.33559,"PRES JOAO PESSOA 364, CENTRO","ENCONTRADO","IDENTIFICADO","PLAN_LEVANTAMENTO"
"ASSOCIACOES_AQUICULTORES","ACCASUMB","04.980.766/0001-30","ASSOCIACAO DOS CRIADORES DE CAMARAO E SUINO DO MUNICIPIO DE BREVES","ASSOCIAÇÃO DE CRIADORES DE CAMARÃO ",,,,"PA",15,"BREVES",150020,"BREVES",1507,"MARAJO",1502,"FUROS DE BREVES",15005,"BREVES",1501808,-1.67901,-50.48182,"TV CAPITAO ASSIS, 755, CENTRO","ENCONTRADO","IDENTIFICADO","PLAN_LEVANTAMENTO"
"ASSOCIACOES_AQUICULTORES","ACCMAR","05.861.317/0001-36","ASSOCIACAO DOS CRIADORES DE CAMARAO MARINHO NORTERIOGRANDENSE","ASSOCIAÇÃO DE CRIADORES DE CAMARÃO ",,,,"RN",24,"CANGUARETAMA",240003,"NATAL",2401,"LESTE POTIGUAR",2404,"LITORAL SUL",24019,"ARES",2401206,-25.44160,-49.26554,"PRESIDENTE GETULIO VARGAS, 362, CENTRO","ENCONTRADO","IDENTIFICADO","PLAN_LEVANTAMENTO"
"ASSOCIACOES_AQUICULTORES","ASSOCIACAO DOS CRIADORES DE CAMAROES DA ILHA DE DEUS/IMBIRIBEIRA","10.999.517/0001-90","ASSOCIACAO DOS CRIADORES DE CAMAROES DA ILHA DE DEUS/IMBIRIBEIRA","ASSOCIAÇÃO DE CRIADORES DE CAMARÃO ","81","3428-7807",,"PE",26,"RECIFE",260001,"RECIFE",2601,"METROPOLITANA DE RECIFE",2605,"RECIFE",26017,"RECIFE/PE",2611606,-8.11343,-34.94560,"RUA SAO MARCOS, SN, IMBIRIBEIRA","NAO_ENCONTRADO","LOCALIZACAO_APROXIMADA","PLAN_LEVANTAMENTO"
"ASSOCIACOES_AQUICULTORES","ACI - ASSOCIACAO DOS CARCINICULTORES DE ITAICABA","21.170.266/0001-52","ASSOCIACAO DOS PEQUENOS AQUICULTORES DE ITAICABA","ASSOCIAÇÃO DE AQUICULTORES","81","9262-7911","joaolourenco56@gmail.com","CE",23,"ARACATI",230008,"QUIXADA",2302,"JAGUARIBE",2305,"LITORAL DE ARACATI",23022,"ITAICABA",2306207,-4.67807,-37.82763,"R. DR GOMES DINIZ, 166","ENCONTRADO","IDENTIFICADO","PLAN_LEVANTAMENTO"
"ASSOCIACOES_AQUICULTORES","ASSOCIACAO DOS PEQUENOS CARCINICULTORES DA VILA GUAGIRU","14.520.646/0001-04","ASSOCIACAO DOS PEQUENOS CARCINICULTORES DA VILA GUAGIRU - FORTIM - CE","ASSOCIAÇÃO DE CRIADORES DE CAMARÃO ","88","9217-2664",,"CE",23,"ARACATI",230008,"QUIXADA",2302,"JAGUARIBE",2305,"LITORAL DE ARACATI",23022,"FORTIM",2304459,-4.41497,-37.83900,"RUA JOSE RIBEIRO DA ROCHA, S/N, VILA GUAGIRU","NAO_ENCONTRADO","LOCALIZACAO_APROXIMADA","PLAN_LEVANTAMENTO"
"ASSOCIACOES_AQUICULTORES","APCC","01.650.651/0001-90","ASSOCIACAO DOS PEQUENOS CRIADORES DE CAMARAO","ASSOCIAÇÃO DE CRIADORES DE CAMARÃO ",,,,"CE",23,"ARACATI",230008,"QUIXADA",2302,"JAGUARIBE",2305,"LITORAL DE ARACATI",23022,"ARACATI",2301109,-4.54233,-37.74587,"BEIRADA, SN, ZONA RUAL","NAO_ENCONTRADO","LOCALIZACAO_APROXIMADA","PLAN_LEVANTAMENTO"
"ASSOCIACOES_AQUICULTORES","ASSOCIACAO DOS PEQUENOS PRODUTORES RURAIS DE CAMARAO","01.950.670/0001-31","ASSOCIACAO DOS PEQUENOS PRODUTORES RURAIS DE CAMARAO","ASSOCIAÇÃO DE CRIADORES DE CAMARÃO ","85","3291-1210",,"CE",23,"REDENCAO-ACARAPE",230003,"FORTALEZA",2301,"NORTE CEARENSE",2302,"BATURITE",23013,"ARATUBA",2301406,-4.41952,-39.04640,"SITIO CAMARAO, S/N, ZONA RURAL","NAO_ENCONTRADO","MUNICIPIO","PLAN_LEVANTAMENTO"
"ASSOCIACOES_AQUICULTORES","ASSOCIACAO DOS PEQUENOS PRODUTORES RURAIS DE CAMARAO","05.238.664/0001-07","ASSOCIACAO DOS PEQUENOS PRODUTORES RURAIS DE CAMARAO","ASSOCIAÇÃO DE CRIADORES DE CAMARÃO ","84","4342-2069",,"RN",24,"ACU",240011,"MOSSORO",2403,"CENTRAL POTIGUAR",2402,"SERRA DE SANTANA",24010,"SANTANA DO MATOS",2411403,-6.06082,-36.73802,"SIT CAMARAO, S/N, ZUNA RURAL","NAO_ENCONTRADO","MUNICIPIO","PLAN_LEVANTAMENTO"
"ASSOCIACOES_AQUICULTORES","APESCA","05.016.728/0001-25","ASSOCIACAO DOS PESCADORES E CRIADORES ARTESANAIS DE PEIXES E CAMARAO","ASSOCIAÇÃO DE CRIADORES DE CAMARÃO ","91","9107-5156",,"PA",15,"BREVES",150020,"BREVES",1507,"MARAJO",1502,"FUROS DE BREVES",15005,"BREVES",1501808,-1.68172,-50.48062,"ILHA DO COROA, SN, ZONA RURAL","NAO_ENCONTRADO","MUNICIPIO","PLAN_LEVANTAMENTO"
"ASSOCIACOES_AQUICULTORES","ASSOCIACAO DOS PRODUTORES DE CAMARAO EM VIVEIROS","02.721.151/0001-64","ASSOCIACAO DOS PRODUTORES DE CAMARAO EM VIVEIROS","ASSOCIAÇÃO DE CRIADORES DE CAMARÃO ",,,,"SE",28,"ARACAJU",280001,"ARACAJU",2801,"LESTE SERGIPANO",2803,"ARACAJU",28011,"NOSSA SENHORA DO SOCORRO",2804805,-10.85368,-37.12687,"POVOADO CALUMBI, S/N, ZONA RURAL","NAO_ENCONTRADO","MUNICIPIO","PLAN_LEVANTAMENTO"
"ASSOCIACOES_AQUICULTORES","ASPECAS","06.235.415/0001-20","ASSOCIACAO DOS PRODUTORES E CRIADORES DE CAMARAO AGUA DOCE E SALGADA DO ESTADO DO PARA","ASSOCIAÇÃO DE CRIADORES DE CAMARÃO ",,,,"PA",15,"BELEM",150001,"BELEM",1501,"METROPOLITANA DE BELEM",1503,"BELEM",15007,"ANANINDEUA",1500800,-1.34664,-48.37964,"ESTRADA DO CURUCAMBA, 48, KM 04, CURUCAMBA","ENCONTRADO","IDENTIFICADO","PLAN_LEVANTAMENTO"
"ASSOCIACOES_AQUICULTORES","APROVALI","05.796.037/0001-91","ASSOCIACAO DOS PRODUTORES RURAIS PISCICULTORES E CARCINICULTORES DO VALE DO ITAPICURU MIRIM","ASSOCIAÇÃO DE CRIADORES DE CAMARÃO ",,,,"BA",29,"SENHOR DO BONFIM",290023,"JUAZEIRO",2908,"CENTRO NORTE BAIANO",2903,"SENHOR DO BONFIM",29008,"SENHOR DO BONFIM",2930105,-10.35899,-40.17189,"RUA DE ITAPICURU SN, TER, ITAPICURU","NAO_ENCONTRADO","LOCALIZACAO_APROXIMADA","PLAN_LEVANTAMENTO"
"ASSOCIACOES_AQUICULTORES","AMCC","05.927.895/0001-28","ASSOCIACAO MARANHENSE DE CRIADORES DE CAMARAO","ASSOCIAÇÃO DE CRIADORES DE CAMARÃO ","98","2275-5817",,"MA",21,"SAO LUIS",210001,"SAO LUIS",2101,"NORTE MARANHENSE",2101,"AGLOMERACAO URBANA DE SAO LUIS",21002,"SAO LUIS",2111300,-2.50989,-44.30117,"RUA DOS ABACATEIROS, EDIFICIO RIO ANIL 1 SL 101, JARDIM SAO FRANCISCO","ENCONTRADO","IDENTIFICADO","PLAN_LEVANTAMENTO"
"ASSOCIACOES_AQUICULTORES","ANPAQUI","00.427.086/0001-33","ASSOCIACAO NORTE PARANAENSE DE AQUICULTORES ANPAQUI","ASSOCIAÇÃO DE AQUICULTORES","43","99918-2801",,"PR",41,"LONDRINA",410021,"LONDRINA",4105,"NORTE CENTRAL PARANAENSE",4103,"LONDRINA",41011,"LONDRINA",4113700,-23.28835,-51.22611,"AVENIDA TIRADENTES, 6355, PARQUE DE EXPOSICOES DE LONDRINA","ENCONTRADO","IDENTIFICADO","PLAN_LEVANTAMENTO"
"ASSOCIACOES_AQUICULTORES","ANCC","05.966.744/0001-89","ASSOCIACAO NORTE RIOGRANDENSE DE CRIADORES DE CAMARAO","ASSOCIAÇÃO DE CRIADORES DE CAMARÃO ","84","3211-8180","origenesmonte@gmail.com","RN",24,"NATAL",240001,"NATAL",2401,"LESTE POTIGUAR",2404,"NATAL",24018,"PARNAMIRIM",2403251,-5.90575,-35.25787,"R. ARISTOFANES FERNANDES, BR 101, KM 13  - PARQUE DE EXPOSICOES","ENCONTRADO","IDENTIFICADO","PLAN_LEVANTAMENTO"
"ASSOCIACOES_AQUICULTORES","ANPC","03.008.191/0001-26","ASSOCIACAO NORTERIOGRANDENSE DOS PRODUTORES DE CAMARAO","ASSOCIAÇÃO DE CRIADORES DE CAMARÃO ",,,,"RN",24,"NATAL",240001,"NATAL",2401,"LESTE POTIGUAR",2404,"MACAIBA",24017,"SAO GONCALO DO AMARANTE",2412005,-5.78708,-35.33003,"PROJETO CIDADE CAMARAO, S/N, IGAPO","NAO_ENCONTRADO","MUNICIPIO","PLAN_LEVANTAMENTO"
"ASSOCIACOES_AQUICULTORES","COALFISA","09.452.013/0001-76","COOPERATIVA DE CARCINICULTORES E PESCADORES DE TRAMATAIA ALTINO FIGUEIREDO DA SILVA LTDA","ASSOCIAÇÃO DE CRIADORES DE CAMARÃO ","83","3625-9083",,"PB",25,"MAMANGUAPE - RIO TINTO",250003,"JOAO PESSOA",2501,"MATA PARAIBANA",2504,"LITORAL NORTE",25020,"MARCACAO",2509057,-6.76257,-34.95641,"RUA PRINCIPAL, CENTRO","NAO_ENCONTRADO","LOCALIZACAO_APROXIMADA","PLAN_LEVANTAMENTO"
"ASSOCIACOES_AQUICULTORES","COOPERSANTA","04.490.224/0001-80","COOPERATIVA DE PRODUCAO DE CAMAROES DE SANTA MARTA PEQUENA C","ASSOCIAÇÃO DE CRIADORES DE CAMARÃO ",,,,"SC",42,"TUBARAO",420003,"CRICIUMA",4202,"SUL CATARINENSE",4206,"TUBARAO",42018,"LAGUNA",4209409,-28.47499,-48.78379,"ESTRADA GERAL SN, SANTA MARTA PEQUENA","NAO_ENCONTRADO","MUNICIPIO","PLAN_LEVANTAMENTO"
"ASSOCIACOES_AQUICULTORES","ACQUAFLOC","30.703.800/0001-30","COOPERATIVA DE TRABALHO DOS PRODUTORES DE CAMARAO ACQUAFLOC DA BAHIA","ASSOCIAÇÃO DE CRIADORES DE CAMARÃO ","71","9938-0912","investcont@ig.com.br","BA",29,"SALVADOR",290001,"SALVADOR",2901,"METROPOLITANA DE SALVADOR",2905,"SANTO ANTONIO DE JESUS",29020,"SANTO AMARO",2928604,-12.67282,-38.75003,"R RODAGEM, 42 - A, DISTRITO ACUPE SANTO AMARO","NAO_ENCONTRADO","LOCALIZACAO_APROXIMADA","PLAN_LEVANTAMENTO"
"ASSOCIACOES_AQUICULTORES","COOPEX","06.111.521/0001-00","COOPERATIVA DOS CRIADORES DE CAMARAO DO EXTREMO SUL DO ESTADO DA BAHIA","ASSOCIAÇÃO DE CRIADORES DE CAMARÃO ",,,,"BA",29,"TEIXEIRA DE FREITAS",290008,"ILHEUS - ITABUNA",2903,"SUL BAIANO",2907,"PORTO SEGURO",29032,"CARAVELAS",2906907,-17.73303,-39.26595,"FIRMINO PEREIRA 30, CS, CENTRO","ENCONTRADO","IDENTIFICADO","PLAN_LEVANTAMENTO"
"ASSOCIACOES_AQUICULTORES","COOPACOPA","32.144.356/0001-95","COOPERATIVA DOS PESCADORES AQUICULTORES E CARCINICULTORES DA COMUNIDADE DE PARAJURU","ASSOCIAÇÃO DE CRIADORES DE CAMARÃO ","85","9936-7520","cooperativacamaraoparajuru@gmail.com","CE",23,"FORTALEZA",230001,"FORTALEZA",2301,"NORTE CEARENSE",2302,"CASCAVEL",23015,"BEBERIBE",2302206,-4.18312,-38.13008,"COMUNIDADE COACU, PARAJURU","NAO_ENCONTRADO","MUNICIPIO","PLAN_LEVANTAMENTO"
"ASSOCIACOES_AQUICULTORES","COPACRIPEC","06.097.903/0001-19","COOPERATIVA DOS PESCADORES ARTEZANAIS E CRIADORES DE PEIXES E CAMAROES DA LOCALIDADE DE MAURICIA E DO MUNICIPIO DE SANTA BARBARA","ASSOCIAÇÃO DE CRIADORES DE CAMARÃO ","91","3776-1470","regi1959@oi.com.br","PA",15,"BELEM",150001,"BELEM",1501,"METROPOLITANA DE BELEM",1503,"BELEM",15007,"SANTA BARBARA DO PARA",1506351,-1.13955,-48.29226,"RUA DA PRACA DA IGREJA, SN, VILA MAURICIA","NAO_ENCONTRADO","LOCALIZACAO_APROXIMADA","PLAN_LEVANTAMENTO"
"COMERCIALIZACAO_PESCADOS","MEDEIROS PESCADOS","18.230.310/0001-68","K F MEDEIROS & CIA LTDA","COMERCIO DE PESCADO EM GERAL",82,"99326-6847","keiny_farias@hotmail.com","AL",27,"MACEIO",270001,"MACEIO",2701,"LESTE ALAGOANO",2703,"MACEIO",27011,"MACEIO",2704302,-9.64428,-35.70979,"R PAULINA MARIA MENDONCA, 15, ANEXO A, JATIUCA, CEP: 57035557","NAO_ENCONTRADO","COORDENADA_APROXIMADA","PLAN_CNAE"
"COMERCIALIZACAO_PESCADOS","O A S PESCADOS","20.009.446/0001-94","O A S PESCADOS LTDA","COMERCIO DE PESCADO EM GERAL",82,"999028802/999294229","oaspescados@hotamil.com","AL",27,"PENEDO",270003,"MACEIO",2701,"LESTE ALAGOANO",2703,"PENEDO",27013,"PIACABUCU",2706802,-10.40843,-36.43353,"R TAMANDARE, 306, CENTRO, CEP: 57210000","NAO_ENCONTRADO","COORDENADA_APROXIMADA","PLAN_CNAE"
"COMERCIALIZACAO_PESCADOS","RIO MAR PESCADOS","16.713.047/0001-32","RIO MAR COMERCIO DE PESCADOS LTDA","COMERCIO DE PESCADO EM GERAL",82,"3326-3669","nobrevasco@ig.com.br","AL",27,"MACEIO",270001,"MACEIO",2701,"LESTE ALAGOANO",2703,"MACEIO",27011,"MACEIO",2704302,-9.66883,-35.71995,"AV WALTER ANANIAS, 488, JARAGUA, CEP: 57022063","ENCONTRADO","NAO_IDENTIFICADO","PLAN_CNAE"
"COMERCIALIZACAO_PESCADOS","CORREA SUL COMERCIO E REPRESENTACOES LTDA   - REPRESENTANTE COSTA SUL PESCADOS",,,"COMERCIO DE PESCADO EM GERAL",71,"3351-1334/ 98167-6253","correasulmarcos@costasul.com.br","AL",27,"MACEIO",270001,"MACEIO",2701,"LESTE ALAGOANO",2703,"MACEIO",27011,"MACEIO",2704302,-9.65070,-35.70880,,"NAO_ENCONTRADO","COORDENADA_ADAPTADA","SEAFOOD BRASIL"
"COMERCIALIZACAO_PESCADOS","COSTA RICA PESCADOS","18.634.031/0001-60","A S CALDAS COMERCIO DE PESCADOS","COMERCIO DE PESCADO EM GERAL",71,"98880-6313","fiscal@welcont.com.br","BA",29,"SALVADOR",290001,"SALVADOR",2901,"METROPOLITANA DE SALVADOR",2905,"SALVADOR",29021,"SALVADOR",2927408,-12.95984,-38.50320,"AV JEQUITAIA, 169, A, AGUA DE MENINOS, CEP: 40460120","ENCONTRADO","IDENTIFICADO","PLAN_CNAE"
"COMERCIALIZACAO_PESCADOS","ATACADISTA BAHIA","04.069.988/0008-72","ACQUA PRODUCTS S A","COMERCIO DE PESCADO EM GERAL",71,"33627540/981822076","controladoria@acquaproducts.com.br","BA",29,"SALVADOR",290001,"SALVADOR",2901,"METROPOLITANA DE SALVADOR",2905,"SALVADOR",29021,"SALVADOR",2927408,-12.92339,-38.45254,"R MARIAZUMBA, 330, GALPAO 4, GRANJAS R PRESIDENTE VARGAS, CEP: 41230080","ENCONTRADO","IDENTIFICADO","PLAN_CNAE"
"COMERCIALIZACAO_PESCADOS","PEIXARIA LIVRAMENTO","12.812.451/0001-02","ADAO MAURICIO LEITE MEIRA","COMERCIO DE PESCADO EM GERAL",77,"34441100/999971841","consolnet@gmail.com/ peixarialivramento@gmail.com","BA",29,"BRUMADO",290013,"VITORIA DA CONQUISTA",2904,"CENTRO SUL BAIANO",2906,"LIVRAMENTO DO BRUMADO",29025,"LIVRAMENTO DE NOSSA SENHORA",2919504,-13.71812,-41.81943,"LOT PERIMETRO IRRIGADO DO BRUMADO, 0, BL III GRUPO 3 2 LT 42, SEDE, CEP: 46140000","ENCONTRADO","IDENTIFICADO","PLAN_CNAE"
"COMERCIALIZACAO_PESCADOS","ALTO MAR","08.840.870/0001-80","ALTO MAR IMPORTADORA E DISTRIBUIDORA LTDA","COMERCIO DE PESCADO EM GERAL",71,"997243116/33017304/33019358","lgs.contabilidade@ig.com.br","BA",29,"SALVADOR",290001,"SALVADOR",2901,"METROPOLITANA DE SALVADOR",2905,"SALVADOR",29021,"SALVADOR",2927408,-12.87483,-38.43711,"R DA MATRIZ, 375, LJ 2, VALERIA, CEP: 41300600","ENCONTRADO","IDENTIFICADO","PLAN_CNAE"
"COMERCIALIZACAO_PESCADOS","CRUSTACEOS & CIA","33.991.514/0001-05","ANTONIO BERNARDO SOUZA DE ALCOBACA","COMERCIO DE PESCADO EM GERAL",73,"32881277/32883642","contabilidadeveloso@hotmail.com","BA",29,"EUNAPOLIS - PORTO SEGURO",290009,"ILHEUS-ITABUNA",2903,"SUL BAIANO",2907,"PORTO SEGURO",29032,"PORTO SEGURO",2925303,-16.45175,-39.06638,"R S PEDRO, 214, CENTRO, CEP: 45810000","NAO_ENCONTRADO","COORDENADA_APROXIMADA","PLAN_CNAE"
"COMERCIALIZACAO_PESCADOS","MAC FISH","16.737.458/0001-68","AQUICULTURA M M B LTDA","COMERCIO DE PESCADO EM GERAL",75,"32812051/988519924","astec.gilson@gmail.com","BA",29,"PAULO AFONSO",290024,"PAULO AFONSO",2909,"VALE SAO-FRANCISCANO DA BAHIA",2902,"PAULO AFONSO",29005,"GLORIA",2911402,-9.34453,-38.25424,"SIT SALGADINHO, 0, POVOADO SALGADO DOS BENICIOS, CEP: 48620000","NAO_ENCONTRADO","MUNICIPIO","PLAN_CNAE"
"COMERCIALIZACAO_PESCADOS","MQI PESCADOS","07.265.386/0001-02","ARMAZEM 4 ARMAZENAGEM EIRELI","COMERCIO DE PESCADO EM GERAL",71,"30217251/33015050/33950779/36128400/32169502","vilma@wascontabilidade.com.br/ vilmalima.contadora@gmail.com","BA",29,"SALVADOR",290001,"SALVADOR",2901,"METROPOLITANA DE SALVADOR",2905,"SALVADOR",29021,"SALVADOR",2927408,-12.83660,-38.37327,"ROD BA 526, 0, KM 5 BOX 1 A GALPAO 7 CEASA, AREIA BRANCA, CEP: 41412000","NAO_ENCONTRADO","COORDENADA_APROXIMADA","PLAN_CNAE"
"COMERCIALIZACAO_PESCADOS","COMERCIAL VERDE MAR","10.385.741/0001-91","COMERCIAL DE ALIMENTOS VERDE MAR EIRELI","COMERCIO DE PESCADO EM GERAL",71,"32199718/33090433","verdemarltda@hotmail.com","BA",29,"SALVADOR",290001,"SALVADOR",2901,"METROPOLITANA DE SALVADOR",2905,"SALVADOR",29021,"SALVADOR",2927408,-12.89106,-38.43780,"R EDSON DIAS MATTOS, 1, ETAPA 1 CJ CAJAZEIRAS III TER, AGUAS CLARAS, CEP: 41311280","ENCONTRADO","IDENTIFICADO","PLAN_CNAE"
"COMERCIALIZACAO_PESCADOS","EXCELER","14.118.010/0001-30","COMERCIAL EXCELER DE PESCADOS E FRUTOS DO MAR LTDA","COMERCIO DE PESCADO EM GERAL",71,"33784090/33785677/33784710/32320491/32329504","financeiro@excelercomercial.com.br","BA",29,"SALVADOR",290001,"SALVADOR",2901,"METROPOLITANA DE SALVADOR",2905,"SALVADOR",29021,"LAURO DE FREITAS",2919207,-12.88186,-38.34540,"R DO PACO, 292, GALPAO 2 QUADRAB LTO DIAMANTE, ITINGA, CEP: 42700000","ENCONTRADO","IDENTIFICADO","PLAN_CNAE"
"COMERCIALIZACAO_PESCADOS","BOMAR","12.306.847/0006-92","EBP EMPRESA BRASILEIRA DE PESCADOS LTDA","COMERCIO DE PESCADO EM GERAL",85,"32706550/32706553","fiscal@bomarpescados.com.br","BA",29,"SALVADOR",290001,"SALVADOR",2901,"METROPOLITANA DE SALVADOR",2905,"SALVADOR",29021,"SIMOES FILHO",2930709,-12.69953,-38.39217,"ROD BA 93, 4120, KM 3 5 SL 6, PALMARES, CEP: 43700000","NAO_ENCONTRADO","COORDENADA_APROXIMADA","PLAN_CNAE"
"COMERCIALIZACAO_PESCADOS","LK PESCADOS","14.319.526/0001-43","EDIVALDO MIRANDA DE JESUS","COMERCIO DE PESCADO EM GERAL",71,"30343413/32310096","crismelosoares@hotmail.com/ financeiro.lkpescados@hotmail.com","BA",29,"SALVADOR",290001,"SALVADOR",2901,"METROPOLITANA DE SALVADOR",2905,"SALVADOR",29021,"SALVADOR",2927408,-12.98018,-38.43401,"R DES LINEU LAPA BARRETO, 256, ED CENTRO COMERCIAL BOCA DO RIO SL 17, BOCA DO RIO, CEP: 41705100","ENCONTRADO","IDENTIFICADO","PLAN_CNAE"
"COMERCIALIZACAO_PESCADOS","TELEMARISCOS","17.315.397/0001-03","ELIAS DE SOUZA SANTIAGO","COMERCIO DE PESCADO EM GERAL",71,"993076503/34893218","cpcnconsultoria@gmail.com/ santiago_contabilidade@hotmail.com","BA",29,"SALVADOR",290001,"SALVADOR",2901,"METROPOLITANA DE SALVADOR",2905,"SALVADOR",29021,"SALVADOR",2927408,-12.96059,-38.50221,"LD DA AGUA BRUSCA, 0, LJ 4, STO ANTONIO, CEP: 40301296","NAO_ENCONTRADO","COORDENADA_APROXIMADA","PLAN_CNAE"
"COMERCIALIZACAO_PESCADOS","ERIC PESCADOS","22.677.709/0001-69","ERIC BISPO CORTIAL","COMERCIO DE PESCADO EM GERAL",71,"997243116/33017304/33019358","lgs.contabilidade@ig.com.br","BA",29,"SALVADOR",290001,"SALVADOR",2901,"METROPOLITANA DE SALVADOR",2905,"SALVADOR",29021,"SALVADOR",2927408,-12.87483,-38.43711,"R DA MATRIZ, 375, LJ 2, VALERIA, CEP: 41300600","ENCONTRADO","IDENTIFICADO","PLAN_CNAE"
"COMERCIALIZACAO_PESCADOS",,"03.306.983/0001-87","EXCELER COMERCIAL LTDA","COMERCIO DE PESCADO EM GERAL",,,,"BA",29,"SALVADOR",290001,"SALVADOR",2901,"METROPOLITANA DE SALVADOR",2905,"SALVADOR",29021,"LAURO DE FREITAS",2919207,-12.89739,-38.33456,"R DO PACO, 292, GALPAO 1 QUADRAB LTO DIAMANTE, ITINGA, CEP: 42700000","ENCONTRADO","IDENTIFICADO","PLAN_CNAE"
"COMERCIALIZACAO_PESCADOS","BIG PESCADOS","19.576.557/0001-01","FACIL COMERCIO ATACADISTA DE PESCADOS EIRELI","COMERCIO DE PESCADO EM GERAL",71,"32445020/33816182","edgardsobrinho@bol.com.br/ izira@ig.com.br","BA",29,"SALVADOR",290001,"SALVADOR",2901,"METROPOLITANA DE SALVADOR",2905,"SALVADOR",29021,"SALVADOR",2927408,-12.95982,-38.50244,"LD DA AGUA BRUSCA, 100, LJ 2, STO ANTONIO, CEP: 40301296","ENCONTRADO","IDENTIFICADO","PLAN_CNAE"
"COMERCIALIZACAO_PESCADOS","AVM FRIOS","40.611.048/0001-50","FRIAVE DISTRIBUIDORA DE ALIMENTOS LTDA","COMERCIO DE PESCADO EM GERAL",75,"36234050/36234017/36234487/36231463/",,"BA",29,"FEIRA DE SANTANA",290029,"FEIRA DE SANTANA",2910,"CENTRO NORTE BAIANO",2903,"FEIRA DE SANTANA",29012,"FEIRA DE SANTANA",2910800,-12.24806,-38.95932,"R HUMBERTO DE CAMPOS, 260, QUEIMADINHA, CEP: 44050078","ENCONTRADO","IDENTIFICADO","PLAN_CNAE"
"COMERCIALIZACAO_PESCADOS","G PESCA","06.240.347/0001-98","G PESCA COMERCIO DE PESCADOS LTDA","COMERCIO DE PESCADO EM GERAL",71,"33533912/32589180","degrau.ac@ig.com.br","BA",29,"SALVADOR",290001,"SALVADOR",2901,"METROPOLITANA DE SALVADOR",2905,"SALVADOR",29021,"SALVADOR",2927408,-12.95509,-38.47283,"R BAIXA DE SANTO ANTONIO, 6, S GONCALO, CEP: 41185270","ENCONTRADO","IDENTIFICADO","PLAN_CNAE"
"COMERCIALIZACAO_PESCADOS","TELEMARISCOS","24.157.150/0001-71","G S SANTIAGO","COMERCIO DE PESCADO EM GERAL",71,"992735383/32683138","santiago_contabilidade@hotmail.com","BA",29,"TEIXEIRA DE FREITAS",290008,"ILHEUS-ITABUNA",2903,"SUL BAIANO",2907,"PORTO SEGURO",29032,"ALCOBACA",2900801,-17.54165,-39.19395,"R CAIS SANTO ANTONIO, 8, B, CENTRO, CEP: 45910000","ENCONTRADO","IDENTIFICADO","PLAN_CNAE"
"COMERCIALIZACAO_PESCADOS","JUBARTE PESCADOS","03.226.623/0001-75","GCT SPALENZA DE ALCOBACA","COMERCIO DE PESCADO EM GERAL",73,"3293-1544","vidalcontador@uol.com.br","BA",29,"TEIXEIRA DE FREITAS",290008,"ILHEUS-ITABUNA",2903,"SUL BAIANO",2907,"PORTO SEGURO",29032,"ALCOBACA",2900801,-17.52701,-39.19344,"R S PAULO, 9, S PEDRO, CEP: 45910000","NAO_ENCONTRADO","MUNICIPIO","PLAN_CNAE"
"COMERCIALIZACAO_PESCADOS","GEOVAN PESCADOS","23.699.394/0001-13","GEOVAN BACATOLE DA SILVA","COMERCIO DE PESCADO EM GERAL",71,"99600-0918","geovanpescados@hotmail.com","BA",29,"SALVADOR",290001,"SALVADOR",2901,"METROPOLITANA DE SALVADOR",2905,"SALVADOR",29021,"SALVADOR",2927408,-12.95955,-38.50252,"LD DA AGUA BRUSCA, 102, LJ, STO ANTONIO, CEP: 40301296","ENCONTRADO","IDENTIFICADO","PLAN_CNAE"
"COMERCIALIZACAO_PESCADOS","SANTA CATARINA TRANSPORTES E COMERCIO","07.908.307/0001-34","GRAPIUNA COMERCIO DE PESCADOS LTDA","COMERCIO DE PESCADO EM GERAL",73,"36137771/988947761/32157143","grapiunapescado@gmail.com","BA",29,"ILHEUS-ITABUNA",290007,"ILHEUS-ITABUNA",2903,"SUL BAIANO",2907,"ILHEUS-ITABUNA",29031,"ITABUNA",2914802,-14.81889,-39.30863,"R PITANGA, 41, TER, JORGE AMADO, CEP: 45611524","ENCONTRADO","IDENTIFICADO","PLAN_CNAE"
"COMERCIALIZACAO_PESCADOS","IMPERIO PESCADOS E FRUTOS DO MAR","21.177.395/0001-72","IMPERIO PESCADOS E FRUTOS DO MAR EIRELI","COMERCIO DE PESCADO EM GERAL",73,"32821411/999058777","imperiopescadosefrutosdomar@yahoo.com.br","BA",29,"EUNAPOLIS - PORTO SEGURO",290009,"ILHEUS-ITABUNA",2903,"SUL BAIANO",2907,"PORTO SEGURO",29032,"SANTA CRUZ CABRALIA",2927705,-16.28392,-39.03531,"R 3 BELO HORIZONTE, 467, CAMPINHO, CEP: 45807000","NAO_ENCONTRADO","COORDENADA_APROXIMADA","PLAN_CNAE"
"COMERCIALIZACAO_PESCADOS","LUZIMAR PESCADOS","07.106.765/0001-50","LUZIMAR BATISTA LEMOS","COMERCIO DE PESCADO EM GERAL",73,"99921-6764","marianeuza_costa@hotmail.com","BA",29,"TEIXEIRA DE FREITAS",290008,"ILHEUS-ITABUNA",2903,"SUL BAIANO",2907,"PORTO SEGURO",29032,"NOVA VICOSA",2923001,-17.90123,-39.37171,"R ELEOSIPPO CUNHA, 20, CENTRO, CEP: 45920000","NAO_ENCONTRADO","MUNICIPIO","PLAN_CNAE"
"COMERCIALIZACAO_PESCADOS","GOLD LOBSTER","22.019.025/0001-70","M A DE O FONSECA PESCADOS","COMERCIO DE PESCADO EM GERAL",73,"3293-2464","alcantaranascimento@uol.com.br","BA",29,"TEIXEIRA DE FREITAS",290008,"ILHEUS-ITABUNA",2903,"SUL BAIANO",2907,"PORTO SEGURO",29032,"ALCOBACA",2900801,-17.53985,-39.19428,"C SANTO ANTONIO, 10, NOVELO, CEP: 45910000","ENCONTRADO","IDENTIFICADO","PLAN_CNAE"
"COMERCIALIZACAO_PESCADOS","MJS COMERCIO DE ALIMENTOS","18.249.209/0001-59","MANUEL JOSE DE SOUZA","COMERCIO DE PESCADO EM GERAL",71,"32139746/987876043","edvcrip@ig.com.br","BA",29,"SALVADOR",290001,"SALVADOR",2901,"METROPOLITANA DE SALVADOR",2905,"SALVADOR",29021,"SALVADOR",2927408,-12.91115,-38.42009,"R SIMONE BARRADAS, 0, Q E LT 52 LJ 3, JD NOVA ESPERANCA, CEP: 41370030","NAO_ENCONTRADO","COORDENADA_APROXIMADA","PLAN_CNAE"
"COMERCIALIZACAO_PESCADOS","MENDES PESCADOS E FRUTOS DO MAR","25.188.762/0001-94","MARCELO DE ARGOLO MENDES NOGUEIRA","COMERCIO DE PESCADO EM GERAL",71,"98232-4668","jailtonfdejesus@hotmail.com","BA",29,"SALVADOR",290001,"SALVADOR",2901,"METROPOLITANA DE SALVADOR",2905,"SALVADOR",29021,"SALVADOR",2927408,-12.94416,-38.45870,"EST DAS BARREIRAS, 1111, SHOPPING GLOBO CENTER SL 201, BARREIRAS, CEP: 41195001","ENCONTRADO","IDENTIFICADO","PLAN_CNAE"
"COMERCIALIZACAO_PESCADOS","MARCON COMERCIO DE PESCADOS","08.379.230/0001-15","MARCON COMERCIO DE PESCADOS EIRELI","COMERCIO DE PESCADO EM GERAL",71,"99191-6696","dalmar.viana@uol.com.br","BA",29,"SALVADOR",290001,"SALVADOR",2901,"METROPOLITANA DE SALVADOR",2905,"SALVADOR",29021,"SALVADOR",2927408,-12.98090,-38.43592,"R DES LINEU LAPA BARRETO, 256, SL 26, BOCA DO RIO, CEP: 41705100","ENCONTRADO","NAO_IDENTIFICADO","PLAN_CNAE"
"COMERCIALIZACAO_PESCADOS","MARITIMA","13.171.286/0001-10","MARITIMA COMERCIAL DE PESCADOS LTDA","COMERCIO DE PESCADO EM GERAL",73,"3211-2484","quadroscontabilidade@ayhoo.com.br/ maritimapescados@hotmail.com","BA",29,"ILHEUS-ITABUNA",290007,"ILHEUS-ITABUNA",2903,"SUL BAIANO",2907,"ILHEUS-ITABUNA",29031,"ITABUNA",2914802,-14.79243,-39.26979,"R S FRANCISCO, 145, TER EO, NS DA CONCEICAO, CEP: 45605330","ENCONTRADO","IDENTIFICADO","PLAN_CNAE"
"COMERCIALIZACAO_PESCADOS",,"10.777.183/0005-33","NORTE PESCA SA","COMERCIO DE PESCADO EM GERAL",,,,"BA",29,"ILHEUS-ITABUNA",290007,"ILHEUS-ITABUNA",2903,"SUL BAIANO",2907,"ILHEUS-ITABUNA",29031,"ILHEUS",2913606,-14.81979,-39.03826,"R LIRIO, 863, AND 1, NELSON COSTA, CEP: 45656150","ENCONTRADO","IDENTIFICADO","PLAN_CNAE"
"COMERCIALIZACAO_PESCADOS","MULTIFRIOS","08.943.212/0001-14","OLIVEIRA HORA COMERCIO LTDA","COMERCIO DE PESCADO EM GERAL",75,"32612790/991276879/32612116","financeiro_multifrios@hotmail.com","BA",29,"SERRINHA",290033,"FEIRA DE SANTANA",2910,"NORDESTE BAIANO",2904,"SERRINHA",29016,"SERRINHA",2930501,-11.68632,-38.98798,"R POVOADO VILA APARECIDA, 375, APARECIDA, CEP: 48700000","ENCONTRADO","IDENTIFICADO","PLAN_CNAE"
"COMERCIALIZACAO_PESCADOS","ONDINA PESCADOS","12.441.431/0001-72","ONDINA PESCADOS LTDA","COMERCIO DE PESCADO EM GERAL",73,"32681814/32882307/33456923","adminbahia@armazemdomarbh.com.br","BA",29,"EUNAPOLIS - PORTO SEGURO",290009,"ILHEUS-ITABUNA",2903,"SUL BAIANO",2907,"PORTO SEGURO",29032,"PORTO SEGURO",2925303,-16.45284,-39.06541,"R CNSO LUIS VIANA FILHO, 88, CENTRO, CEP: 45810000","NAO_ENCONTRADO","COORDENADA_APROXIMADA","PLAN_CNAE"
"COMERCIALIZACAO_PESCADOS","PEIXOL","34.419.143/0001-54","PEIXARIA OLIVEIRA LTDA","COMERCIO DE PESCADO EM GERAL",73,"32931349/32932066/32932909","peixol1firma@hotmail.com","BA",29,"TEIXEIRA DE FREITAS",290008,"ILHEUS-ITABUNA",2903,"SUL BAIANO",2907,"PORTO SEGURO",29032,"ALCOBACA",2900801,-17.54406,-39.19392,"R JOAQUIM MUNIZ, 35, CENTRO, CEP: 45910000","ENCONTRADO","IDENTIFICADO","PLAN_CNAE"
"COMERCIALIZACAO_PESCADOS","PESCADOS SALVADOR","24.251.277/0001-55","PESCADOS SALVADOR EIRELI","COMERCIO DE PESCADO EM GERAL",71,"3017-4545","pescadobahia@outlook.com","BA",29,"SALVADOR",290001,"SALVADOR",2901,"METROPOLITANA DE SALVADOR",2905,"SALVADOR",29021,"SALVADOR",2927408,-12.95973,-38.50240,"LD DA AGUA BRUSCA, 113, TER, STO ANTONIO, CEP: 40301296","NAO_ENCONTRADO","COORDENADA_APROXIMADA","PLAN_CNAE"
"COMERCIALIZACAO_PESCADOS","PESCAMAR FRUTOS DO MAR","04.832.553/0001-61","PESCAMAR FRUTOS DO MAR EIRELI","COMERCIO DE PESCADO EM GERAL",71,"32871536/33783366/32884844/32884850/32884843","stratusltda@terra.com.br","BA",29,"SALVADOR",290001,"SALVADOR",2901,"METROPOLITANA DE SALVADOR",2905,"SALVADOR",29021,"LAURO DE FREITAS",2919207,-12.89027,-38.32380,"AV SANTOS DUMONT, 0, LT REC IPITANGA KM 2 5 SN LT 30 E 31 Q 11, EST DO COCO, CEP: 42700000","NAO_ENCONTRADO","COORDENADA_APROXIMADA","PLAN_CNAE"
"COMERCIALIZACAO_PESCADOS","LOBSTER FISHED","07.615.467/0001-95","PRAWN LOBSTER PESCADOS LTDA","COMERCIO DE PESCADO EM GERAL",73,"36333538/999984822/32114792","silviocontabilidade@ig.com.br/ dyegolacerda92@gmail.com","BA",29,"CAMACAN",290010,"ILHEUS-ITABUNA",2903,"SUL BAIANO",2907,"ILHEUS-ITABUNA",29031,"CANAVIEIRAS",2906303,-15.67428,-38.94836,"R ANTONIO CARLOS MAGALHAES, 976, CENTRO, CEP: 45860000","NAO_ENCONTRADO","MUNICIPIO","PLAN_CNAE"
"COMERCIALIZACAO_PESCADOS",,"15.452.593/0009-51","PRIME SEAFOOD LTDA","COMERCIO DE PESCADO EM GERAL",73,"3293-1544","vidalcontador@uol.com.br","BA",29,"TEIXEIRA DE FREITAS",290008,"ILHEUS-ITABUNA",2903,"SUL BAIANO",2907,"PORTO SEGURO",29032,"ALCOBACA",2900801,-17.52701,-39.19344,"R CONTORNO, 73, KM 16 SL 4, BARRA, CEP: 45910000","NAO_ENCONTRADO","MUNICIPIO","PLAN_CNAE"
"COMERCIALIZACAO_PESCADOS","TELEMARISCOS","10.842.752/0001-53","SANTIAGO SILVA PESCADOS LTDA","COMERCIO DE PESCADO EM GERAL",73,"32680223/32883236/32882473","santiago_contabilidade@hotmail.com","BA",29,"EUNAPOLIS - PORTO SEGURO",290009,"ILHEUS-ITABUNA",2903,"SUL BAIANO",2907,"PORTO SEGURO",29032,"PORTO SEGURO",2925303,-16.45105,-39.06729,"R S PEDRO, 22, TER, CENTRO, CEP: 45810000","ENCONTRADO","IDENTIFICADO","PLAN_CNAE"
"COMERCIALIZACAO_PESCADOS","TELEMARISCOS","19.117.435/0001-49","TELEMARISCOS PESCADOS E FRUTOS DO MAR LTDA","COMERCIO DE PESCADO EM GERAL",71,"31436633/992735383","telemariscosba@uol.com.br","BA",29,"SALVADOR",290001,"SALVADOR",2901,"METROPOLITANA DE SALVADOR",2905,"SALVADOR",29021,"SALVADOR",2927408,-12.88337,-38.47943,"LD DA TEREZINHA, 347, AT DA TEREZINHA, CEP: 40711060","ENCONTRADO","IDENTIFICADO","PLAN_CNAE"
"COMERCIALIZACAO_PESCADOS","O REI DO PEIXE","16.413.122/0001-40","TRINO ORGANIZACOES LTDA","COMERCIO DE PESCADO EM GERAL",75,"36211963/981599116","antoniocruz1@hotmail.com","BA",29,"CRUZ DAS ALMAS",290004,"SANTO ANTONIO DE JESUS",2902,"METROPOLITANA DE SALVADOR",2905,"SANTO ANTONIO DE JESUS",29020,"CRUZ DAS ALMAS",2909802,-12.66578,-39.11295,"R AGENOR SAMPAIO, 3, PRQ STA CRUZ, CEP: 44380000","ENCONTRADO","IDENTIFICADO","PLAN_CNAE"
"COMERCIALIZACAO_PESCADOS",,"25.108.777/0001-03","VILLA PESCADOS COMERCIO DE FRUTOS DO MAR LTDA","COMERCIO DE PESCADO EM GERAL",71,"2153-3268","fiscal@organizacaosilveira.com.br","BA",29,"SALVADOR",290001,"SALVADOR",2901,"METROPOLITANA DE SALVADOR",2905,"SALVADOR",29021,"SIMOES FILHO",2930709,-12.83687,-38.41167,"AC A, 732, SL 2, CIA SUL, CEP: 43700000","ENCONTRADO","IDENTIFICADO","PLAN_CNAE"
"COMERCIALIZACAO_PESCADOS","VIVENDA DO PESCADO","12.731.895/0001-13","VIVENDA DO PESCADO COMERCIAL LTDA","COMERCIO DE PESCADO EM GERAL",77,"988020876/988023718/36285251","heloisa.cacil@gmail.com/ enersol.lem@hotmail.com","BA",29,"BARREIRAS",290018,"BARREIRAS",2906,"EXTREMO OESTE BAIANO",2901,"BARREIRAS",29001,"LUIS EDUARDO MAGALHAES",2919553,-12.09125,-45.78522,"R GLAUBER ROCHA, 139, JD PARAISO, CEP: 47850000","ENCONTRADO","IDENTIFICADO","PLAN_CNAE"
"COMERCIALIZACAO_PESCADOS","ATACADO DO PEIXE","10.580.572/0001-40","VIVIANI GRASSI ALMEIDA ALVARENGA EIRELI","COMERCIO DE PESCADO EM GERAL",73,"3288-3338","mameddiosilva.contabilidade@gmail.com","BA",29,"EUNAPOLIS - PORTO SEGURO",290009,"ILHEUS-ITABUNA",2903,"SUL BAIANO",2907,"PORTO SEGURO",29032,"PORTO SEGURO",2925303,-16.41805,-39.08839,"ROD BR 367 PORTO SEGURO EUNAPOLIS, 0, KM 34 Q 3 LT 1, AGROVILA, CEP: 45810000","NAO_ENCONTRADO","MUNICIPIO","PLAN_CNAE"
"COMERCIALIZACAO_PESCADOS",,"30.791.560/0002-53","ZIPPILIMA INDUSTRIA E COMERCIO DE PESCADOS EM RECUPERACAO JUDICIAL","COMERCIO DE PESCADO EM GERAL",71,"3242-5082","zippilimapescado@terra.com.br","BA",29,"SALVADOR",290001,"SALVADOR",2901,"METROPOLITANA DE SALVADOR",2905,"SALVADOR",29021,"SALVADOR",2927408,-12.95967,-38.50293,"AV FREDERICO PONTES, 173, AGUA DE MENINOS, CEP: 40460000","ENCONTRADO","IDENTIFICADO","PLAN_CNAE"
"COMERCIALIZACAO_PESCADOS","CORREA SUL COMERCIO E REPRESENTACOES LTDA   - REPRESENTANTE COSTA SUL PESCADOS",,,"COMERCIO DE PESCADO EM GERAL",71,"3351-1334/ 98167-6253","correasulmarcos@costasul.com.br","BA",29,"SALVADOR",290001,"SALVADOR",2901,"METROPOLITANA DE SALVADOR",2905,"SALVADOR",29021,"SALVADOR",2927408,-12.98588,-38.47400,,"NAO_ENCONTRADO","COORDENADA_ADAPTADA","SEAFOOD BRASIL"
"COMERCIALIZACAO_PESCADOS","QUATRO MARES",,,"COMERCIO DE PESCADO EM GERAL",71,"3612-8400",,"BA",29,"SALVADOR",290001,"SALVADOR",2901,"METROPOLITANA DE SALVADOR",2905,"SALVADOR",29021,"SALVADOR",2927408,-12.83857,-38.37267,"PEDAGIO CIA - AEROPORTO - RODOVIA BA-526, KM 5,5, S/N, JARDIM DAS MARGARIDAS, CEP: 40001970","ENCONTRADO","NAO_IDENTIFICADO","SEAFOOD BRASIL"
"COMERCIALIZACAO_PESCADOS",,"23.716.810/0001-44","A A COMERCIO ATACADISTA DE CRUSTACEOS LTDA","COMERCIO DE PESCADO EM GERAL",85,"98854-1696",,"CE",23,"FORTALEZA",230001,"FORTALEZA",2301,"METROPOLITANA DE FORTALEZA",2303,"FORTALEZA",23016,"FORTALEZA",2304400,-3.73478,-38.47226,"R FAUSTO CABRAL, 975, PAPICU, CEP: 60175415","ENCONTRADO","IDENTIFICADO","PLAN_CNAE"
"COMERCIALIZACAO_PESCADOS","F A PESCADOS E MARISCOS","11.508.271/0001-79","A B DE AMARANTE MARISCOS E PESCADOS","COMERCIO DE PESCADO EM GERAL",85,"986913899/32765050",,"CE",23,"FORTALEZA",230001,"FORTALEZA",2301,"METROPOLITANA DE FORTALEZA",2303,"FORTALEZA",23016,"FORTALEZA",2304400,-3.81897,-38.47098,"R MURITIAPUA, 240, 2, LAGOA REDONDA, CEP: 60831301","ENCONTRADO","IDENTIFICADO","PLAN_CNAE"
"COMERCIALIZACAO_PESCADOS","DISTRIBUIDORA J C","35.044.866/0001-89","ALBERTO JOSE CAVALCANTE JUNIOR","COMERCIO DE PESCADO EM GERAL",85,"32391434/30817047/32675599",,"CE",23,"FORTALEZA",230001,"FORTALEZA",2301,"METROPOLITANA DE FORTALEZA",2303,"FORTALEZA",23016,"FORTALEZA",2304400,-3.73249,-38.48708,"R 8 DE SETEMBRO, 171, VARJOTA, CEP: 60175210","ENCONTRADO","IDENTIFICADO","PLAN_CNAE"
"COMERCIALIZACAO_PESCADOS","ALIMENTOS YEDA","10.720.256/0001-27","ALIMENTOS YEDA - EIRELI","COMERCIO DE PESCADO EM GERAL",85,"99680-5639","info@alimentosyeda.com","CE",23,"FORTALEZA",230001,"FORTALEZA",2301,"METROPOLITANA DE FORTALEZA",2303,"FORTALEZA",23016,"FORTALEZA",2304400,-3.77128,-38.48254,"AV WASHINGTON SOARES , 1400, SALA 201, EDSON QUEIROZ, CEP: 60410-800","ENCONTRADO","NAO_IDENTIFICADO","SEAFOOD BRASIL"
"COMERCIALIZACAO_PESCADOS","ALL MAR ARMAZENS","14.582.987/0001-04","ALL MAR ARMAZENAGEM COMERCIO E DISTRIBUIDORA LTDA","COMERCIO DE PESCADO EM GERAL",85,"3253-1917",,"CE",23,"FORTALEZA",230001,"FORTALEZA",2301,"METROPOLITANA DE FORTALEZA",2303,"FORTALEZA",23016,"FORTALEZA",2304400,-3.72973,-38.53801,"R DOMINGOS OLIMPIO, 2211, FARIAS BRITO, CEP: 60015103","ENCONTRADO","IDENTIFICADO","PLAN_CNAE"
"COMERCIALIZACAO_PESCADOS","PEIXARIA PINHEIRO","69.369.684/0001-08","ANDRE FONTENELE PINHEIRO COSTA","COMERCIO DE PESCADO EM GERAL",85,"99983-4778",,"CE",23,"FORTALEZA",230001,"FORTALEZA",2301,"METROPOLITANA DE FORTALEZA",2303,"FORTALEZA",23016,"FORTALEZA",2304400,-3.76946,-38.54243,"AV DOS EXPEDICIONARIOS, 5, 635 LJ 6, FATIMA, CEP: 60411135","ENCONTRADO","IDENTIFICADO","PLAN_CNAE"
"COMERCIALIZACAO_PESCADOS","SMARSARO PESCADOS","09.436.096/0001-00","B S SANTOS COMERCIO DE PESCADOS LTDA","COMERCIO DE PESCADO EM GERAL",88,"996248889/36614083",,"CE",23,"ACARAU",230017,"SOBRAL",2306,"NOROESTE CEARENSE",2301,"LITORAL DE CAMOCIM E ACARAU",23001,"ACARAU",2300200,-2.89061,-40.11424,"R DEP RODRIGUES MAGALHAES, 481, CENTRO, CEP: 62580000","NAO_ENCONTRADO","COORDENADA_APROXIMADA","PLAN_CNAE"
"COMERCIALIZACAO_PESCADOS","I. C. S.","07.013.459/0001-79","BRESSAM & SOARES REPRESENTACOES LTDA - REPRESENTANTE COSTA SUL PESCADOS","COMERCIO DE PESCADO EM GERAL",85,"99989-9001/ 99953-8779/ 3278-1397","ics@costasul.com.br","CE",23,"FORTALEZA",230001,"FORTALEZA",2301,"METROPOLITANA DE FORTALEZA",2303,"FORTALEZA",23016,"FORTALEZA",2304400,-3.79909,-38.49052,"R MAXIMO LINHARES, 770, SALA A, CIDADE DOS FUNCIONARIOS, CEP: 60.822-390","ENCONTRADO","NAO_IDENTIFICADO","SEAFOOD BRASIL"
"COMERCIALIZACAO_PESCADOS",,"01.605.349/0001-10","CAIX COMERCIAL DE ALIMENTOS IND E EXP LTDA","COMERCIO DE PESCADO EM GERAL",85,"32534496/38770399/32265262/32266261/32524011",,"CE",23,"FORTALEZA",230001,"FORTALEZA",2301,"METROPOLITANA DE FORTALEZA",2303,"FORTALEZA",23016,"FORTALEZA",2304400,-3.72975,-38.53819,"TV ISMENIA, 0, 21 23 E 25, CENTRO, CEP: 60035220","ENCONTRADO","IDENTIFICADO","PLAN_CNAE"
"COMERCIALIZACAO_PESCADOS",,"01.605.349/0002-09","CAIX COMERCIAL DE ALIMENTOS IND E EXP LTDA","COMERCIO DE PESCADO EM GERAL",85,"3297-3064",,"CE",23,"FORTALEZA",230001,"FORTALEZA",2301,"METROPOLITANA DE FORTALEZA",2303,"FORTALEZA",23016,"MARACANAU",2307650,-3.84495,-38.58567,"ROD DR MENDEL STEINBRUCH, 0, GV 2 L 5 6 7 E 8, CID NOVA, CEP: 61930000","NAO_ENCONTRADO","COORDENADA_APROXIMADA","PLAN_CNAE"
"COMERCIALIZACAO_PESCADOS","CAMAPESC","24.971.320/0001-57","CAMAPESC COMERCIAL DE PESCADOS LTDA","COMERCIO DE PESCADO EM GERAL",85,"99648-8987",,"CE",23,"ACARAU",230017,"SOBRAL",2306,"NOROESTE CEARENSE",2301,"LITORAL DE CAMOCIM E ACARAU",23001,"ACARAU",2300200,-2.92395,-40.12011,"AV VOLUNTARIOS DA PATRIA, 2515, BR 403 KM 4, MORADA NOVA, CEP: 62580000","ENCONTRADO","IDENTIFICADO","PLAN_CNAE"
"COMERCIALIZACAO_PESCADOS","CCB CONFIANCE CARIBE BRASIL","08.512.735/0003-78","CCB COMERCIO DE PESCADOS LTDA","COMERCIO DE PESCADO EM GERAL",88,"99908-6655","rony.sene@gmail.com","CE",23,"ACARAU",230017,"SOBRAL",2306,"NOROESTE CEARENSE",2301,"LITORAL DE CAMOCIM E ACARAU",23001,"ITAREMA",2306553,-2.92269,-39.91143,"R JOAO JAIME, 0, CENTRO, CEP: 62590000","NAO_ENCONTRADO","COORDENADA_APROXIMADA","PLAN_CNAE"
"COMERCIALIZACAO_PESCADOS",,"04.506.123/0004-00","CELM AQUICULTURA S A","COMERCIO DE PESCADO EM GERAL",85,"3224-2626",,"CE",23,"FORTALEZA",230001,"FORTALEZA",2301,"METROPOLITANA DE FORTALEZA",2303,"FORTALEZA",23016,"FORTALEZA",2304400,-3.72192,-38.46500,"R ARISTIDES BARCELOS, 220, SL 1, VICENTE PINZON, CEP: 60181832","ENCONTRADO","IDENTIFICADO","PLAN_CNAE"
"COMERCIALIZACAO_PESCADOS",,"81.599.359/0009-86","COSTA SUL PESCADOS S A","COMERCIO DE PESCADO EM GERAL",88,"99901-9274",,"CE",23,"ACARAU",230017,"SOBRAL",2306,"NOROESTE CEARENSE",2301,"LITORAL DE CAMOCIM E ACARAU",23001,"ITAREMA",2306553,-2.92336,-39.91381,"R 1 DE JANEIRO, 88, SL I, CENTRO, CEP: 62590000","ENCONTRADO","IDENTIFICADO","PLAN_CNAE"
"COMERCIALIZACAO_PESCADOS","BOMAR PESCADOS","12.306-847/0001-88","EBP - EMPRESA BRASILEIRA DE PESCADOS LTDA","COMERCIO DE PESCADO EM GERAL",85,"3270-6556 / 3270-6550 / 3270-6562 / 3535-1011","fiscal@bomarpescados.com.br","CE",23,"FORTALEZA",230001,"FORTALEZA",2301,"METROPOLITANA DE FORTALEZA",2303,"FORTALEZA",23016,"FORTALEZA",2304400,-3.77128,-38.48254,"AV. WASHINGTON SOARES, 1400, SALA 704, , CEP: 60811-341","ENCONTRADO","NAO_IDENTIFICADO","PLAN_CNAE"
"COMERCIALIZACAO_PESCADOS",,"14.695.804/0001-67","EDVANDO LIMA DA COSTA","COMERCIO DE PESCADO EM GERAL",88,"3421-1464",,"CE",23,"ARACATI",230008,"QUIXADA",2302,"JAGUARIBE",2305,"LITORAL DE ARACATI",23022,"ARACATI",2301109,-4.57652,-37.76744,"ROD BR 304, 0, KM 54 5 SN LJ B, AT DA CHEIA, CEP: 62800000","NAO_ENCONTRADO","COORDENADA_APROXIMADA","PLAN_CNAE"
"COMERCIALIZACAO_PESCADOS","RIONORT PESCADOS","12.033.006/0001-44","F DOMINGUES DE SOUSA NETO PESCA","COMERCIO DE PESCADO EM GERAL",88,"99619-3823","rionortpescados@gmail.com","CE",23,"ACARAU",230017,"SOBRAL",2306,"NOROESTE CEARENSE",2301,"LITORAL DE CAMOCIM E ACARAU",23001,"ACARAU",2300200,-2.89214,-40.11968,"AV JOSE GIFFONE DA SILVEIRA, 1200, SAGUIM, CEP: 62580000","ENCONTRADO","IDENTIFICADO","PLAN_CNAE"
"COMERCIALIZACAO_PESCADOS","SO PEIXE","14.292.388/0001-56","F DOS SANTOS CEZARIO ALIMENTOS","COMERCIO DE PESCADO EM GERAL",88,"99956-6245",,"CE",23,"FORTALEZA",230001,"FORTALEZA",2301,"METROPOLITANA DE FORTALEZA",2303,"FORTALEZA",23016,"FORTALEZA",2304400,-3.71519,-38.56110,"R ANA FACO, 68, BOX 2 MERCADO CARLIT, ALVARO WEYNE, CEP: 60335430","ENCONTRADO","IDENTIFICADO","PLAN_CNAE"
"COMERCIALIZACAO_PESCADOS","PESQUEIRA JARDIM DAS OLIVEIRAS","10.483.149/0001-22","F GOMES DE ARAUJO PESCADOS","COMERCIO DE PESCADO EM GERAL",88,"99922-4755",,"CE",23,"CAMOCIM",230018,"SOBRAL",2306,"NOROESTE CEARENSE",2301,"LITORAL DE CAMOCIM E ACARAU",23001,"CAMOCIM",2302602,-2.90286,-40.85935,"TV SANTANA, 641, JD DAS OLIVEIRAS, CEP: 62400000","NAO_ENCONTRADO","COORDENADA_APROXIMADA","PLAN_CNAE"
"COMERCIALIZACAO_PESCADOS",,"14.642.550/0001-19","F K F COMERCIO DE PESCADOS LTDA","COMERCIO DE PESCADO EM GERAL",85,"3231-1428",,"CE",23,"FORTALEZA",230001,"FORTALEZA",2301,"METROPOLITANA DE FORTALEZA",2303,"FORTALEZA",23016,"FORTALEZA",2304400,-3.72976,-38.53772,"R TERESA CRISTINA, 1056, CENTRO, CEP: 60015140","ENCONTRADO","IDENTIFICADO","PLAN_CNAE"
"COMERCIALIZACAO_PESCADOS","DE NARDI PESCADOS","20.653.181/0001-62","FRANCYELLE DOS PASSOS DE NARDI","COMERCIO DE PESCADO EM GERAL",88,"992137244/36611121","ayltondenardi@live.com","CE",23,"ACARAU",230017,"SOBRAL",2306,"NOROESTE CEARENSE",2301,"LITORAL DE CAMOCIM E ACARAU",23001,"ACARAU",2300200,-2.87661,-40.11968,"R MAJ BENTO MOURA, 1474, OUTRA BANDA, CEP: 62580000","NAO_ENCONTRADO","COORDENADA_APROXIMADA","PLAN_CNAE"
"COMERCIALIZACAO_PESCADOS",,"04.459.073/0008-73","GENESEAS AQUACULTURA LTDA","COMERCIO DE PESCADO EM GERAL",11,"3123-2100","rafael.barufi@geneseas.com.br","CE",23,"ACARAU",230017,"SOBRAL",2306,"NOROESTE CEARENSE",2301,"LITORAL DE CAMOCIM E ACARAU",23001,"ACARAU",2300200,-2.88607,-40.11838,"R ARIMAR SILVEIRA, 260, CENTRO, CEP: 62580000","NAO_ENCONTRADO","COORDENADA_APROXIMADA","PLAN_CNAE"
"COMERCIALIZACAO_PESCADOS",,"07.282.742/0003-68","INTERFRIOS INTERCAMBIO DE FRIOS S A","COMERCIO DE PESCADO EM GERAL",,,,"CE",23,"ARACATI",230008,"QUIXADA",2302,"JAGUARIBE",2305,"LITORAL DE ARACATI",23022,"ICAPUI",2305357,-4.71467,-37.35597,"VL BARRA GRANDE, 0, ZONA RURAL, CEP: 62810000","NAO_ENCONTRADO","MUNICIPIO","PLAN_CNAE"
"COMERCIALIZACAO_PESCADOS","INTERFRIOS","07.282.742/0001-04","INTERFRIOS INTERCAMBIO DE FRIOS S A","COMERCIO DE PESCADO EM GERAL",85,"32631520/32633782/32631155",,"CE",23,"FORTALEZA",230001,"FORTALEZA",2301,"METROPOLITANA DE FORTALEZA",2303,"FORTALEZA",23016,"FORTALEZA",2304400,-3.71320,-38.47266,"AV VICENTE DE CASTRO, 5000, CAIS DO PORTO, CEP: 60180410","ENCONTRADO","IDENTIFICADO","PLAN_CNAE"
"COMERCIALIZACAO_PESCADOS","J3 PESCADOS","16.581.964/0001-00","J3 INDUSTRIA COMERCIO IMPORTACAO E EXPORTACAO DE PESCADOS EIRELI","COMERCIO DE PESCADO EM GERAL",85,"32461254/34896228","ivanvcosta@hotmail.com","CE",23,"ARACATI",230008,"QUIXADA",2302,"JAGUARIBE",2305,"LITORAL DE ARACATI",23022,"ICAPUI",2305357,-4.70846,-37.35850,"AV 22 DE JANEIRO, 5080, SL 1, CENTRO, CEP: 62810000","NAO_ENCONTRADO","COORDENADA_APROXIMADA","PLAN_CNAE"
"COMERCIALIZACAO_PESCADOS","ALFA PESCA","01.845.727/0001-32","JACQUES ARAUJO TREVIA","COMERCIO DE PESCADO EM GERAL",88,"36211877/36211193",,"CE",23,"CAMOCIM",230018,"SOBRAL",2306,"NOROESTE CEARENSE",2301,"LITORAL DE CAMOCIM E ACARAU",23001,"CAMOCIM",2302602,-2.90080,-40.83880,"R ESPLANADA DO PORTO, 101, COQUEIROS, CEP: 62400000","ENCONTRADO","IDENTIFICADO","PLAN_CNAE"
"COMERCIALIZACAO_PESCADOS",,"15.693.744/0001-06","JANGADA COMERCIO E EXPORTACAO DE PESCADOS LTDA","COMERCIO DE PESCADO EM GERAL",88,"36671186/36671210","diecontabil@hotmail.com","CE",23,"ACARAU",230017,"SOBRAL",2306,"NOROESTE CEARENSE",2301,"LITORAL DE CAMOCIM E ACARAU",23001,"ITAREMA",2306553,-2.92114,-39.92527,"R MANOEL TEOFILO DA GUIA, 1780, A, CENTRO, CEP: 62590000","NAO_ENCONTRADO","COORDENADA_APROXIMADA","PLAN_CNAE"
"COMERCIALIZACAO_PESCADOS","JAP SUPRIMENTOS ORIENTAIS","20.972.273/0001-05","JAP COMERCIO DE PESCADOS LTDA","COMERCIO DE PESCADO EM GERAL",85,"30772974/32893573","somalia.monique@grupojap.com.br","CE",23,"FORTALEZA",230001,"FORTALEZA",2301,"METROPOLITANA DE FORTALEZA",2303,"FORTALEZA",23016,"FORTALEZA",2304400,-3.80545,-38.48477,"R MOREIRA LEITE, 150, CAMBEBA, CEP: 60822401","NAO_ENCONTRADO","COORDENADA_APROXIMADA","PLAN_CNAE"
"COMERCIALIZACAO_PESCADOS","JLB PESCADOS","20.236.889/0001-18","JLB PESCADOS LTDA","COMERCIO DE PESCADO EM GERAL",88,"3572-1104","elisa.ma@brisanet.com.br/ jlbpescados1@hotmail.com","CE",23,"JUAZEIRO DO NORTE",230011,"JUAZEIRO DO NORTE",2304,"SUL CEARENSE",2307,"CARIRI",23032,"JUAZEIRO DO NORTE",2307304,-7.22438,-39.29898,"R ANTONIO ALMEIDA MAGALHAES, 634, LIMOEIRO, CEP: 63030360","ENCONTRADO","IDENTIFICADO","PLAN_CNAE"
"COMERCIALIZACAO_PESCADOS","K PESCA","05.865.220/0001-00","KLEBER DE OLIVEIRA ESTITE","COMERCIO DE PESCADO EM GERAL",85,"33341164/33340980",,"CE",23,"FORTALEZA",230001,"FORTALEZA",2301,"NORTE CEARENSE",2302,"CASCAVEL",23015,"CASCAVEL",2303501,-4.12498,-38.24079,"R CEL HORACIO BESSA, 1806, CENTRO, CEP: 62850000","ENCONTRADO","IDENTIFICADO","PLAN_CNAE"
"COMERCIALIZACAO_PESCADOS","LA MAREA","27.782.795/0001-93","LA MAREA COMERCIO DE ALIMENTOS EIRELI","COMERCIO DE PESCADO EM GERAL",85,"3223-0817","hiram@lamarea.ind.br","CE",23,"FORTALEZA",230001,"FORTALEZA",2301,"METROPOLITANA DE FORTALEZA",2303,"FORTALEZA",23016,"FORTALEZA",2304400,-3.72570,-38.56074,"R CAP NESTOR GOIS, 716, LJ G, VL ELLERY, CEP: 60320380","ENCONTRADO","IDENTIFICADO","PLAN_CNAE"
"COMERCIALIZACAO_PESCADOS","LA SABINITA","07.849.156/0001-90","LA SABINITA COMERCIO DE PESCADOS LTDA","COMERCIO DE PESCADO EM GERAL",85,"3281-1878",,"CE",23,"FORTALEZA",230001,"FORTALEZA",2301,"METROPOLITANA DE FORTALEZA",2303,"FORTALEZA",23016,"FORTALEZA",2304400,-3.73931,-38.54618,"R PROF JOAO BOSCO, 197, LJ 4, RODOLFO TEOFILO, CEP: 60430690","ENCONTRADO","IDENTIFICADO","PLAN_CNAE"
"COMERCIALIZACAO_PESCADOS","J M PESCADOS","14.697.099/0001-37","M DA CONCEICAO DA CRUZ","COMERCIO DE PESCADO EM GERAL",85,"3239-1434",,"CE",23,"FORTALEZA",230001,"FORTALEZA",2301,"METROPOLITANA DE FORTALEZA",2303,"FORTALEZA",23016,"FORTALEZA",2304400,-3.73320,-38.48660,"R GEN DUTRA, 92, VARJOTA, CEP: 60175220","NAO_ENCONTRADO","COORDENADA_APROXIMADA","PLAN_CNAE"
"COMERCIALIZACAO_PESCADOS","M S PESCADOS E FRIOS","08.596.966/0001-45","MANOEL DA SILVEIRA ROCHA","COMERCIO DE PESCADO EM GERAL",85,"32576378/32578002/32273603",,"CE",23,"FORTALEZA",230001,"FORTALEZA",2301,"METROPOLITANA DE FORTALEZA",2303,"FORTALEZA",23016,"FORTALEZA",2304400,-3.75052,-38.51025,"R ADOLFO PINHEIRO, 367, DIONISIO TORRES, CEP: 60120040","ENCONTRADO","IDENTIFICADO","PLAN_CNAE"
"COMERCIALIZACAO_PESCADOS","GALEGO PESCADOS","17.098.025/0001-72","MARIA ILDENER DA SILVA","COMERCIO DE PESCADO EM GERAL",88,"99658-6262",,"CE",23,"ARACATI",230008,"QUIXADA",2302,"JAGUARIBE",2305,"LITORAL DE ARACATI",23022,"ARACATI",2301109,-4.57319,-37.77490,"R CEL POMPEU, 1404, CENTRO, CEP: 62800000","ENCONTRADO","IDENTIFICADO","PLAN_CNAE"
"COMERCIALIZACAO_PESCADOS",,"23.849.262/0001-20","MARITIMOS PESCADOS CEARA LTDA","COMERCIO DE PESCADO EM GERAL",85,"3253-5432",,"CE",23,"FORTALEZA",230001,"FORTALEZA",2301,"METROPOLITANA DE FORTALEZA",2303,"FORTALEZA",23016,"FORTALEZA",2304400,-3.87530,-38.50777,"R MARLENE FARIAS FILGUEIRAS, 2200, SL F, PEDRAS, CEP: 60874430","ENCONTRADO","NAO_IDENTIFICADO","PLAN_CNAE"
"COMERCIALIZACAO_PESCADOS","MEGA FISH","41.571.449/0001-97","MEGA FISH COMERCIO DE PESCADO LTDA","COMERCIO DE PESCADO EM GERAL",85,"34913632/986740356","analisecontabilidade1@hotmail.com","CE",23,"RUSSAS - LIMOEIRO DO NORTE",230007,"QUIXADA",2302,"JAGUARIBE",2305,"MEDIO JAGUARIBE",23024,"JAGUARIBARA",2306801,-5.45985,-38.45893,"AV MANOEL RODRIGUES PINHEIRO, 102, CENTRO, CEP: 63490000","NAO_ENCONTRADO","COORDENADA_APROXIMADA","PLAN_CNAE"
"COMERCIALIZACAO_PESCADOS",,"00.201.615/0001-86","MESSIAS ANDRADE DA COSTA EIRELI","COMERCIO DE PESCADO EM GERAL",,,,"CE",23,"FORTALEZA",230001,"FORTALEZA",2301,"NORTE CEARENSE",2302,"CASCAVEL",23015,"BEBERIBE",2302206,-4.18137,-38.12881,"R MNS DOURADO, 0, PARAJURU, CEP: 62840000","NAO_ENCONTRADO","COORDENADA_APROXIMADA","PLAN_CNAE"
"COMERCIALIZACAO_PESCADOS","PEIXARIA MIRAY","15.609.110/0001-22","MIRAY COMERCIO DE PEIXES E PRODUTOS ORIENTAIS LTDA","COMERCIO DE PESCADO EM GERAL",85,"32213353/32632531/32414891",,"CE",23,"FORTALEZA",230001,"FORTALEZA",2301,"METROPOLITANA DE FORTALEZA",2303,"FORTALEZA",23016,"FORTALEZA",2304400,-3.73181,-38.47247,"R LETICIA BRAGA, 79, PAPICU, CEP: 60175655","ENCONTRADO","IDENTIFICADO","PLAN_CNAE"
"COMERCIALIZACAO_PESCADOS","ALLMARE ALIMENTOS","18.450.755/0001-53","MS PESCADOS COMERCIO IMPORTACAO E EXPORTACAO LTDA","COMERCIO DE PESCADO EM GERAL",88,"3661-1121","allmarealimentos@hotmail.com","CE",23,"ACARAU",230017,"SOBRAL",2306,"NOROESTE CEARENSE",2301,"LITORAL DE CAMOCIM E ACARAU",23001,"ACARAU",2300200,-2.87752,-40.12266,"R CAP ANTONIO RAIMUNDO, 10, OUTRA BANDA, CEP: 62580000","ENCONTRADO","IDENTIFICADO","PLAN_CNAE"
"COMERCIALIZACAO_PESCADOS",,"12.986.375/0002-32","MS PESCADOS COMERCIO IMPORTACAO E EXPORTACAO S A","COMERCIO DE PESCADO EM GERAL",,,,"CE",23,"ARACATI",230008,"QUIXADA",2302,"JAGUARIBE",2305,"LITORAL DE ARACATI",23022,"ICAPUI",2305357,-4.71467,-37.35597,"VL DA BARRINHA, 471, PR DA BARRINHA, CEP: 62810000","NAO_ENCONTRADO","MUNICIPIO","PLAN_CNAE"
"COMERCIALIZACAO_PESCADOS","ESQ FRUTOS DO MAR","27.934.713/0001-89","NEIDE COMERCIAL DE ALIMENTOS EIRELI","COMERCIO DE PESCADO EM GERAL",85,"3555-8201",,"CE",23,"FORTALEZA",230001,"FORTALEZA",2301,"METROPOLITANA DE FORTALEZA",2303,"FORTALEZA",23016,"FORTALEZA",2304400,-3.72375,-38.46624,"TV PROF ALVARO COSTA, 336, LJ 1, VICENTE PINZON, CEP: 60182015","ENCONTRADO","IDENTIFICADO","PLAN_CNAE"
"COMERCIALIZACAO_PESCADOS",,"08.060.848/0001-18","NORDESTALIMENTAR COMERCIO E INDUSTRIA DE ALIMENTOS LTDA","COMERCIO DE PESCADO EM GERAL",85,"30870389/32249911",,"CE",23,"FORTALEZA",230001,"FORTALEZA",2301,"METROPOLITANA DE FORTALEZA",2303,"FORTALEZA",23016,"FORTALEZA",2304400,-3.73286,-38.50757,"AV SANTOS DUMONT, 1789, SL 508, ALDEOTA, CEP: 60150161","ENCONTRADO","IDENTIFICADO","PLAN_CNAE"
"COMERCIALIZACAO_PESCADOS","NORDESTE PESCADOS","12.850.372/0001-96","NORDESTE DISTRIBUIDORA DE PESCADOS LTDA","COMERCIO DE PESCADO EM GERAL",85,"3344-1556","abraaogois@uol.com.br","CE",23,"FORTALEZA",230001,"FORTALEZA",2301,"METROPOLITANA DE FORTALEZA",2303,"FORTALEZA",23016,"FORTALEZA",2304400,-3.78821,-38.50519,"R JOSE LEONCIO, 943, A, CID DOS FUNCIONARIOS, CEP: 60823020","ENCONTRADO","IDENTIFICADO","PLAN_CNAE"
"COMERCIALIZACAO_PESCADOS",,"09.392.367/0001-72","NORTRADE ATACADISTA DE PESCADOS E FRUTOS DO MAR LTDA","COMERCIO DE PESCADO EM GERAL",88,"99648-8987",,"CE",23,"ACARAU",230017,"SOBRAL",2306,"NOROESTE CEARENSE",2301,"LITORAL DE CAMOCIM E ACARAU",23001,"ACARAU",2300200,-2.88641,-40.11533,"AV PE ANTONIO TOMAS, 2515, SL 2, MORADA NOVA, CEP: 62580000","NAO_ENCONTRADO","COORDENADA_APROXIMADA","PLAN_CNAE"
"COMERCIALIZACAO_PESCADOS","P RIOS COMERCIO DE PESCADOS E FRIOS","06.353.786/0001-07","P RIOS COMERCIO DE PESCADOS E FRIOS EIRELI","COMERCIO DE PESCADO EM GERAL",88,"36671356/36671254",,"CE",23,"ACARAU",230017,"SOBRAL",2306,"NOROESTE CEARENSE",2301,"LITORAL DE CAMOCIM E ACARAU",23001,"ITAREMA",2306553,-2.92625,-39.90510,"AV JOAO BATISTA RIOS, 3033, ALTOS, LAGOA DAS VELHAS, CEP: 62590000","NAO_ENCONTRADO","COORDENADA_APROXIMADA","PLAN_CNAE"
"COMERCIALIZACAO_PESCADOS","PENTA PESCADOS","13.430.506/0001-82","PENTA PESCADOS LTDA","COMERCIO DE PESCADO EM GERAL",85,"3257-5638",,"CE",23,"RUSSAS - LIMOEIRO DO NORTE",230007,"QUIXADA",2302,"JAGUARIBE",2305,"BAIXO JAGUARIBE",23023,"ALTO SANTO",2300705,-5.51904,-38.27075,"ROD BR 116, 0, KM 253 LT 12, PRQ AQUICOLA DE ALTO SANTO, CEP: 62970000","NAO_ENCONTRADO","MUNICIPIO","PLAN_CNAE"
"COMERCIALIZACAO_PESCADOS","PESCAMAR","07.419.431/0001-36","PESCAMAR INDUSTRIA PESQUEIRA LTDA","COMERCIO DE PESCADO EM GERAL",85,"3253-5432","tadeu@gesplannet.com.br","CE",23,"FORTALEZA",230001,"FORTALEZA",2301,"METROPOLITANA DE FORTALEZA",2303,"FORTALEZA",23016,"CAUCAIA",2303709,-3.73691,-38.65662,"R MANUEL FERREIRA, 413, SL 1, CIGANA, CEP: 61605040","ENCONTRADO","IDENTIFICADO","PLAN_CNAE"
"COMERCIALIZACAO_PESCADOS","PRIME SEAFOOD","15.452.593/0007-90","PRIME SEAFOOD LTDA","COMERCIO DE PESCADO EM GERAL",85,"3253-5432",,"CE",23,"ARACATI",230008,"QUIXADA",2302,"JAGUARIBE",2305,"LITORAL DE ARACATI",23022,"ICAPUI",2305357,-4.69845,-37.36870,"AV ENOQUE CARNEIRO, 3203, CAJUAIS, CEP: 62810000","NAO_ENCONTRADO","COORDENADA_APROXIMADA","PLAN_CNAE"
"COMERCIALIZACAO_PESCADOS",,"05.583.684/0001-15","R W MESQUITA AQUICULTURA LTDA","COMERCIO DE PESCADO EM GERAL",88,"3611-5268",,"CE",23,"CAMOCIM",230018,"SOBRAL",2306,"NOROESTE CEARENSE",2301,"LITORAL DE CAMOCIM E ACARAU",23001,"CHAVAL",2303907,-3.03604,-41.24386,"LOCALIDADE DENOMINADA FLAMENGO, 0, FLAMENGO, CEP: 62420000","NAO_ENCONTRADO","MUNICIPIO","PLAN_CNAE"
"COMERCIALIZACAO_PESCADOS","REDE DO PEIXE","16.628.815/0001-50","REDE DO PEIXE CRIACAO E COMERCIO DE PESCADOS LTDA","COMERCIO DE PESCADO EM GERAL",85,"3257-5638",,"CE",23,"RUSSAS - LIMOEIRO DO NORTE",230007,"QUIXADA",2302,"JAGUARIBE",2305,"BAIXO JAGUARIBE",23023,"ALTO SANTO",2300705,-5.51904,-38.27075,"SIT LOCALIDADE SITIO LAGOA GRANDE, 0, ZONA RURAL, CEP: 62970000","NAO_ENCONTRADO","MUNICIPIO","PLAN_CNAE"
"COMERCIALIZACAO_PESCADOS",,"12.818.231/0001-96","RICARDO JOSE ROMCY FILHO","COMERCIO DE PESCADO EM GERAL",85,"3253-2025",,"CE",23,"FORTALEZA",230001,"FORTALEZA",2301,"METROPOLITANA DE FORTALEZA",2303,"FORTALEZA",23016,"FORTALEZA",2304400,-3.71292,-38.56049,"R VICENTE SABOIA, 67, ALVARO WEYNE, CEP: 60335010","ENCONTRADO","IDENTIFICADO","PLAN_CNAE"
"COMERCIALIZACAO_PESCADOS",,"25.250.847/0003-17","RIO E MAR CRUSTACEOS E FRUTOS DO MAR LTDA","COMERCIO DE PESCADO EM GERAL",11,"2324-0903",,"CE",23,"FORTALEZA",230001,"FORTALEZA",2301,"METROPOLITANA DE FORTALEZA",2303,"FORTALEZA",23016,"MARACANAU",2307650,-3.83482,-38.61087,"ROD ANEL VIARIO, 0, KM 8 2 CJ A SL 152, INDUSTRIAL, CEP: 61925215","NAO_ENCONTRADO","COORDENADA_APROXIMADA","PLAN_CNAE"
"COMERCIALIZACAO_PESCADOS","S S PESCADOS","20.603.760/0001-09","S S PESCADOS LTDA","COMERCIO DE PESCADO EM GERAL",85,"30170246/986069794","sspescados@outlook.com","CE",23,"FORTALEZA",230001,"FORTALEZA",2301,"METROPOLITANA DE FORTALEZA",2303,"FORTALEZA",23016,"FORTALEZA",2304400,-3.78167,-38.49752,"R STENIO GOMES, 208, A, JD DAS OLIVEIRAS, CEP: 60821450","ENCONTRADO","IDENTIFICADO","PLAN_CNAE"
"COMERCIALIZACAO_PESCADOS","TROPICOS ALIMENTOS","02.312.273/0002-88","TROPICOS DISTRIBUIDORA DE ALIMENTOS LTDA","COMERCIO DE PESCADO EM GERAL",85,"3458-1812",,"CE",23,"ARACATI",230008,"QUIXADA",2302,"JAGUARIBE",2305,"LITORAL DE ARACATI",23022,"ARACATI",2301109,-4.56113,-37.76901,"FAZ POCO, 0, ZONA RURAL, CEP: 62800000","NAO_ENCONTRADO","MUNICIPIO","PLAN_CNAE"
"COMERCIALIZACAO_PESCADOS","VALMAR DISTRIBUIDORA","11.495.106/0001-20","VALMAR COMERCIO E DISTRIBUIDORA DE ALIMENTOS LTDA","COMERCIO DE PESCADO EM GERAL",85,"34942510/987671502/32900200","hpnilde@terra.com.br","CE",23,"FORTALEZA",230001,"FORTALEZA",2301,"METROPOLITANA DE FORTALEZA",2303,"FORTALEZA",23016,"FORTALEZA",2304400,-3.76046,-38.58689,"R EURICO MEDINA, 735, D LUSTOSA, CEP: 60526155","ENCONTRADO","IDENTIFICADO","PLAN_CNAE"
"COMERCIALIZACAO_PESCADOS","VILLA PESCADOS","24.544.189/0001-41","VILLA PESCADOS LTDA","COMERCIO DE PESCADO EM GERAL",71,"21045400/32920814","fiscal@organizacaosilveira.com.br","CE",23,"FORTALEZA",230001,"FORTALEZA",2301,"METROPOLITANA DE FORTALEZA",2303,"FORTALEZA",23016,"AQUIRAZ",2301000,-3.95592,-38.51058,"ROD BR 116, 0, KM 23 BL 1 CJ C SL 2, CAMARA, CEP: 61700000","ENCONTRADO","IDENTIFICADO","PLAN_CNAE"
"COMERCIALIZACAO_PESCADOS","MARIS PESCADO",,,"COMERCIO DE PESCADO EM GERAL",88,"3433-3421","contato@marispescados.com.br","CE",23,"ARACATI",230008,"QUIXADA",2302,"JAGUARIBE",2305,"LITORAL DE ARACATI",23022,"ARACATI",2301109,-4.56568,-37.77227,"R. CEL. ALEXANDRINO, 850, CENTRO, CEP: 62800-000","NAO_ENCONTRADO","COORDENADA_APROXIMADA","SEAFOOD BRASIL"
"COMERCIALIZACAO_PESCADOS","ATLANTICO PESCADOS","06.368.738/0001-92","ATLANTICO COMERCIAL DE ALIMENTOS LTDA","COMERCIO DE PESCADO EM GERAL",61,"33872109/36724962","contabil.dias@ada.com.br","DF",53,"DISTRITO FEDERAL",530001,"DISTRITO FEDERAL",5301,"DISTRITO FEDERAL",5301,"BRASILIA",53001,"BRASILIA",5300108,-15.64844,-47.82429,"SES 7, 0, LT 24, ST ECON DE SOBRADINHO, CEP: 73020407","NAO_ENCONTRADO","COORDENADA_APROXIMADA","PLAN_CNAE"
"COMERCIALIZACAO_PESCADOS","BOM PEIXE","45.666.419/0008-91","BOM PEIXE INDUSTRIA E COMERCIO LTDA","COMERCIO DE PESCADO EM GERAL",19,"3429-6600","leandro.davila@bompeixe.com.br","DF",53,"DISTRITO FEDERAL",530001,"DISTRITO FEDERAL",5301,"DISTRITO FEDERAL",5301,"BRASILIA",53001,"BRASILIA",5300108,-16.01780,-48.01630,"ST POLO DE DESENV JUSCELINO KUBITSCHEK TRECHO 1 CJ 10, 0, LT 17 SL 9 E PARTE CAMARA, STA MARIA, CEP: 72549550","NAO_ENCONTRADO","COORDENADA_APROXIMADA","PLAN_CNAE"
"COMERCIALIZACAO_PESCADOS","PEIXARIA PEIXE VIVO","26.422.360/0002-56","COMERCIO DE PESCADOS PEIXE VIVO LTDA","COMERCIO DE PESCADO EM GERAL",61,"33518377/33547082",,"DF",53,"DISTRITO FEDERAL",530001,"DISTRITO FEDERAL",5301,"DISTRITO FEDERAL",5301,"BRASILIA",53001,"BRASILIA",5300108,-15.81097,-48.06267,"COL AGRIC SAMAMBAIA VILA SAO JOSE CHACARA, 39, LT 1, TAGUATINGA, CEP: 72110600","ENCONTRADO","IDENTIFICADO","PLAN_CNAE"
"COMERCIALIZACAO_PESCADOS","MIRAMAR PESCADOS","05.627.584/0001-43","DANIEL BRITO SILVEIRA","COMERCIO DE PESCADO EM GERAL",61,"34011901/30451781/33772499/30226792/33772608",,"DF",53,"DISTRITO FEDERAL",530001,"DISTRITO FEDERAL",5301,"DISTRITO FEDERAL",5301,"BRASILIA",53001,"BRASILIA",5300108,-15.81390,-48.13141,"ADE, 0, Q 1 CJ A LT 30 PARTE A SN, CEILANDIA, CEP: 72237110","ENCONTRADO","IDENTIFICADO","PLAN_CNAE"
"COMERCIALIZACAO_PESCADOS","I L P IMPORTACAO E EXPORTACAO DE PESCADOS","07.616.969/0001-30","DISTRIBUIDORA FRIO SUL LTDA","COMERCIO DE PESCADO EM GERAL",61,"3562-8258",,"DF",53,"DISTRITO FEDERAL",530001,"DISTRITO FEDERAL",5301,"DISTRITO FEDERAL",5301,"BRASILIA",53001,"BRASILIA",5300108,-15.90133,-48.04983,"QN 7 E CJ 4, 0, LT 6, RIACHO FUNDOS II, CEP: 71880054","NAO_ENCONTRADO","COORDENADA_APROXIMADA","PLAN_CNAE"
"COMERCIALIZACAO_PESCADOS","MERLIN AZUL PESCADOS","18.927.666/0001-55","G A DE M OLIVEIRA","COMERCIO DE PESCADO EM GERAL",61,"993493620/32971000","alppedrosa@ig.com.br","DF",53,"DISTRITO FEDERAL",530001,"DISTRITO FEDERAL",5301,"DISTRITO FEDERAL",5301,"BRASILIA",53001,"BRASILIA",5300108,-15.79252,-48.02529,"ST R, 12, CHACARA 137 1 SN LT 2 PARTE A, ST HABITACIONAL VICENTE PIRES, CEP: 72007575","NAO_ENCONTRADO","COORDENADA_APROXIMADA","PLAN_CNAE"
"COMERCIALIZACAO_PESCADOS","ILHA DO PESCADOR","22.289.022/0001-56","ILHA DO PESCADOR LTDA","COMERCIO DE PESCADO EM GERAL",61,"3629-0349",,"DF",53,"DISTRITO FEDERAL",530001,"DISTRITO FEDERAL",5301,"DISTRITO FEDERAL",5301,"BRASILIA",53001,"BRASILIA",5300108,-16.00389,-48.05950,"Q 3, 0, LT 380 SL 221 ED REAL CENTER, ST INDUSTRIAL, CEP: 72445030","NAO_ENCONTRADO","COORDENADA_APROXIMADA","PLAN_CNAE"
"COMERCIALIZACAO_PESCADOS","DIBOM ALIMENTOS","16.513.158/0001-03","IPANEMA COMERCIO DE ALIMENTOS LTDA","COMERCIO DE PESCADO EM GERAL",61,"35629800/35592031/35591125/35591159/",,"DF",53,"DISTRITO FEDERAL",530001,"DISTRITO FEDERAL",5301,"DISTRITO FEDERAL",5301,"BRASILIA",53001,"BRASILIA",5300108,-16.04111,-48.25602,"AV BRASILIA, 32, ENGENHO DAS LAGES, CEP: 72492200","ENCONTRADO","IDENTIFICADO","PLAN_CNAE"
"COMERCIALIZACAO_PESCADOS","NATURAL PESCADOS","04.610.282/0001-08","L OLIVE COMERCIO DE ALIMENTOS","COMERCIO DE PESCADO EM GERAL",61,"33581940/33576799/33576614",,"DF",53,"DISTRITO FEDERAL",530001,"DISTRITO FEDERAL",5301,"DISTRITO FEDERAL",5301,"BRASILIA",53001,"BRASILIA",5300108,-15.87882,-48.07232,"QS 308 CJ 2, 0, LT 4, SAMAMBAIA SUL, CEP: 72306522","ENCONTRADO","IDENTIFICADO","PLAN_CNAE"
"COMERCIALIZACAO_PESCADOS","KALAMARES COMERCIAL DE ALIMENTOS","37.086.329/0001-27","LCX COMERCIAL DE ALIMENTOS LTDA","COMERCIO DE PESCADO EM GERAL",61,"33476404/32632008/32632006/32632007/32632009","emporiokalamares@kalamares.com.br","DF",53,"DISTRITO FEDERAL",530001,"DISTRITO FEDERAL",5301,"DISTRITO FEDERAL",5301,"BRASILIA",53001,"BRASILIA",5300108,-15.76663,-47.87827,"SHC NORTE CL, 0, Q 406 BL D SN LJ 22 SS 40, ASA NORTE, CEP: 70847540","ENCONTRADO","IDENTIFICADO","PLAN_CNAE"
"COMERCIALIZACAO_PESCADOS","LITORAL PESCADOS","11.042.059/0001-69","LITORAL PESCADOS LTDA","COMERCIO DE PESCADO EM GERAL",61,"30263319/30274088","empresalitoralpescados@gmail.com","DF",53,"DISTRITO FEDERAL",530001,"DISTRITO FEDERAL",5301,"DISTRITO FEDERAL",5301,"BRASILIA",53001,"BRASILIA",5300108,-16.04809,-47.96831,"ST POLO DE DESENV JK TRECHO, 2, CJ 4 5 7, STA MARIA, CEP: 72549580","ENCONTRADO","IDENTIFICADO","PLAN_CNAE"
"COMERCIALIZACAO_PESCADOS","LITORAL PESCADOS","11.042.059/0003-20","LITORAL PESCADOS LTDA","COMERCIO DE PESCADO EM GERAL",61,"30263319/30274088","empresalitoralpescados@gmail.com","DF",53,"DISTRITO FEDERAL",530001,"DISTRITO FEDERAL",5301,"DISTRITO FEDERAL",5301,"BRASILIA",53001,"BRASILIA",5300108,-16.04809,-47.96831,"TR, 0, POLO DE DESENV JUSCELINO KUBITSCHEK TRECH 2 CJ 4 LT 5 7, ST HABITACOES I NORTE, CEP: 71536252","ENCONTRADO","IDENTIFICADO","PLAN_CNAE"
"COMERCIALIZACAO_PESCADOS","IFISH","16.834.656/0001-40","MAR & RIO EIRELI","COMERCIO DE PESCADO EM GERAL",61,"32345995/32250635",,"DF",53,"DISTRITO FEDERAL",530001,"DISTRITO FEDERAL",5301,"DISTRITO FEDERAL",5301,"BRASILIA",53001,"BRASILIA",5300108,-15.79781,-47.96922,"SIA TRECHO 17 R 15, 0, LT 30 PARTE A, ZONA INDUSTRIAL, CEP: 71200243","ENCONTRADO","IDENTIFICADO","PLAN_CNAE"
"COMERCIALIZACAO_PESCADOS","MEDITERRANEO ALIMENTOS","20.963.822/0001-85","MEDITERRANEO ALIMENTOS EIRELI","COMERCIO DE PESCADO EM GERAL",61,"996165911/33330913","juridico@mapscontabilidade.com.br","DF",53,"DISTRITO FEDERAL",530001,"DISTRITO FEDERAL",5301,"DISTRITO FEDERAL",5301,"BRASILIA",53001,"BRASILIA",5300108,-15.90262,-48.06368,"Q 102 CJ 13, 0, LT 3 SL 101, REC DAS EMAS, CEP: 72600215","NAO_ENCONTRADO","COORDENADA_APROXIMADA","PLAN_CNAE"
"COMERCIALIZACAO_PESCADOS","SABOR DO MAR","12.383.706/0001-69","MEDITERRANEO PESCADOS EIRELI","COMERCIO DE PESCADO EM GERAL",61,"993330876/30261010",,"DF",53,"DISTRITO FEDERAL",530001,"DISTRITO FEDERAL",5301,"DISTRITO FEDERAL",5301,"BRASILIA",53001,"BRASILIA",5300108,-15.89607,-48.04993,"QN 28 CJ 2, 0, LT 13 SL 201, RIACHO FUNDOS II, CEP: 71880662","NAO_ENCONTRADO","COORDENADA_APROXIMADA","PLAN_CNAE"
"COMERCIALIZACAO_PESCADOS","NOMAR PESCADOS","12.515.750/0001-85","NOMAR COMERCIO DE PESCADOS E FRUTOS DO MAR EIRELI","COMERCIO DE PESCADO EM GERAL",61,"30267777/33767868",,"DF",53,"DISTRITO FEDERAL",530001,"DISTRITO FEDERAL",5301,"DISTRITO FEDERAL",5301,"BRASILIA",53001,"BRASILIA",5300108,-15.84988,-48.10860,"A ADE Q 4 CJ H, 0, LT 4, A DESENV ECONOMICO, CEP: 72237480","NAO_ENCONTRADO","COORDENADA_APROXIMADA","PLAN_CNAE"
"COMERCIALIZACAO_PESCADOS","NORTH PACIFIC","28.234.199/0001-31","NORTH PACIFIC ATACADISTA DE PESCADOS LTDA","COMERCIO DE PESCADO EM GERAL",61,"99280-0157","financeiro.imperiopescados@outlook.com","DF",53,"DISTRITO FEDERAL",530001,"DISTRITO FEDERAL",5301,"DISTRITO FEDERAL",5301,"BRASILIA",53001,"BRASILIA",5300108,-15.74836,-47.92342,"SOFN 4 CJ F, 0, LJ 96, ZONA INDUSTRIAL, CEP: 70634460","NAO_ENCONTRADO","COORDENADA_APROXIMADA","PLAN_CNAE"
"COMERCIALIZACAO_PESCADOS","ONDA AZUL PESCADOS","11.361.841/0001-40","OCEANICO COMERCIAL DE ALIMENTOS EIRELI","COMERCIO DE PESCADO EM GERAL",61,"30332109/35914048/33870968/30215788/39639746",,"DF",53,"DISTRITO FEDERAL",530001,"DISTRITO FEDERAL",5301,"DISTRITO FEDERAL",5301,"BRASILIA",53001,"BRASILIA",5300108,-15.66030,-47.79312,"Q SEE, 0, Q 7 LT 23, SOBRADINHO, CEP: 73020050","ENCONTRADO","IDENTIFICADO","PLAN_CNAE"
"COMERCIALIZACAO_PESCADOS","RIACHO PESCADOS","09.108.537/0001-44","RIACHO PESCADOS COMERCIO DE ALIMENTOS LTDA","COMERCIO DE PESCADO EM GERAL",61,"34347548/34342006/34340977",,"DF",53,"DISTRITO FEDERAL",530001,"DISTRITO FEDERAL",5301,"DISTRITO FEDERAL",5301,"BRASILIA",53001,"BRASILIA",5300108,-15.91556,-48.05095,"A ADE 600 CJ 6, 0, LT 3, REC DAS EMAS, CEP: 72640006","ENCONTRADO","IDENTIFICADO","PLAN_CNAE"
"COMERCIALIZACAO_PESCADOS","CARAVELAS FRUTOS DO MAR","26.467.514/0002-26","SANTA LUCIA COMERCIO DE PRODUTOS ALIMENTICIOS EIRELI","COMERCIO DE PESCADO EM GERAL",61,"33473277/999858387",,"DF",53,"DISTRITO FEDERAL",530001,"DISTRITO FEDERAL",5301,"DISTRITO FEDERAL",5301,"BRASILIA",53001,"BRASILIA",5300108,-15.81291,-47.89663,"SEPS 709 908, 0, BL C LJ 4 8 E 12, ASA SUL, CEP: 70390089","NAO_ENCONTRADO","COORDENADA_APROXIMADA","PLAN_CNAE"
"COMERCIALIZACAO_PESCADOS","SIRIA PESCADOS","15.177.486/0001-05","SIRIA COMERCIO ATACADISTA DE PESCADOS LTDA","COMERCIO DE PESCADO EM GERAL",61,"30267777/33767868",,"DF",53,"DISTRITO FEDERAL",530001,"DISTRITO FEDERAL",5301,"DISTRITO FEDERAL",5301,"BRASILIA",53001,"BRASILIA",5300108,-15.84988,-48.10860,"ADE, 0, Q 2 CJ A 23 LT, AREA DE DESENVOLVIMENTO ECONOMICO CEILA, CEP: 72237210","NAO_ENCONTRADO","COORDENADA_APROXIMADA","PLAN_CNAE"
"COMERCIALIZACAO_PESCADOS","WW REPRESENTACOES","07.272.596/0001-28","WW - REPRESENTACOES COMERCIAIS LTDA","COMERCIO DE PESCADO EM GERAL",61,"3526-4909 /99961-1016","wws@costasul.com.br / cclcontabilidade@ig.com.br","DF",53,"DISTRITO FEDERAL",530001,"DISTRITO FEDERAL",5301,"DISTRITO FEDERAL",5301,"BRASILIA",53001,"BRASILIA",5300108,-15.84003,-48.01696,"ST SHCN CL QUADRA 203, 31, BLOCO B, ASA NORTE, CEP: 70.833-520","NAO_ENCONTRADO","COORDENADA_APROXIMADA","SEAFOOD BRASIL"
"COMERCIALIZACAO_PESCADOS","FRESCATTO COMPANY",,,"COMERCIO DE PESCADO EM GERAL",61,"3234-2005","info@frescattocompany.com","DF",53,"DISTRITO FEDERAL",530001,"DISTRITO FEDERAL",5301,"DISTRITO FEDERAL",5301,"BRASILIA",53001,"BRASILIA",5300108,-15.96522,-48.02403,"CND 06, LOTE 04 LOJA 01, TAGUATINGA, CEP: 72120-065","ENCONTRADO","IDENTIFICADO","SEAFOOD BRASIL"
"COMERCIALIZACAO_PESCADOS",,"02.283.012/0001-04","BRUNO FREDERICO ALVARENGA","COMERCIO DE PESCADO EM GERAL",27,"33150148/33255781/33456034","luciene.alvarenga@terra.com.br","ES",32,"VITORIA",320001,"VITORIA",3201,"CENTRAL ESPIRITO-SANTENSE",3203,"VITORIA",32009,"VITORIA",3205309,-20.30569,-40.29492,"R DES SAMPAIO, 204, SL 402, PR DO CANTO, CEP: 29055250","ENCONTRADO","IDENTIFICADO","PLAN_CNAE"
"COMERCIALIZACAO_PESCADOS","C A A RODRIGUES COMERCIO DE PESCADOS","05.144.610/0001-82","C A A RODRIGUES COMERCIO DE PESCADOS","COMERCIO DE PESCADO EM GERAL",27,"32380802/33443228/33435631/33465631/","pointercs@ig.com.br","ES",32,"VITORIA",320001,"VITORIA",3201,"CENTRAL ESPIRITO-SANTENSE",3203,"VITORIA",32009,"VIANA",3205101,-20.34666,-40.42314,"R BARRA DE SAO FRANCISCO, 1, Q 4, MARCILIO DE NORONHA, CEP: 29135632","ENCONTRADO","IDENTIFICADO","PLAN_CNAE"
"COMERCIALIZACAO_PESCADOS","GEANIZELLI LIMA PESCADOS","13.252.467/0001-70","EDGELSON GEANIZELLI LIMA","COMERCIO DE PESCADO EM GERAL",28,"35201311/999952932","neryecostacontabilidade@hotmail.com","ES",32,"VITORIA",320001,"VITORIA",3201,"CENTRAL ESPIRITO-SANTENSE",3203,"GUARAPARI",32010,"PIUMA",3204203,-20.83835,-40.72420,"R ALFREDO MAIA DIAS, 1054, CENTRO, CEP: 29285000","ENCONTRADO","IDENTIFICADO","PLAN_CNAE"
"COMERCIALIZACAO_PESCADOS",,"04.172.777/0001-94","FHENIX DISTRIBUICAO E TRANSPORTES LTDA","COMERCIO DE PESCADO EM GERAL",27,"3286-3960","costalealpescados@uol.com.br","ES",32,"VITORIA",320001,"VITORIA",3201,"CENTRAL ESPIRITO-SANTENSE",3203,"VITORIA",32009,"CARIACICA",3201308,-20.34889,-40.38178,"R DA COMUNIDADE, 86, PARTE, ROSA DA PENHA, CEP: 29143430","ENCONTRADO","IDENTIFICADO","PLAN_CNAE"
"COMERCIALIZACAO_PESCADOS","JM PESCADOS","10.367.097/0001-29","JM PESCADOS LTDA","COMERCIO DE PESCADO EM GERAL",27,"32611414/993164592",,"ES",32,"VITORIA",320001,"VITORIA",3201,"CENTRAL ESPIRITO-SANTENSE",3203,"GUARAPARI",32010,"GUARAPARI",3202405,-20.64600,-40.51996,"AV CIDADE SAUDE, 21, S GABRIEL, CEP: 29213270","ENCONTRADO","IDENTIFICADO","PLAN_CNAE"
"COMERCIALIZACAO_PESCADOS","LBN GELOS E PESCADOS","31.697.790/0001-30","LBN COMERCIO DE GELOS E PESCADOS LTDA","COMERCIO DE PESCADO EM GERAL",28,"35201478/35204813/35201391/35202605/",,"ES",32,"VITORIA",320001,"VITORIA",3201,"CENTRAL ESPIRITO-SANTENSE",3203,"GUARAPARI",32010,"PIUMA",3204203,-20.83848,-40.72143,"AV ESPIRITO SANTO, 199, CENTRO, CEP: 29285000","ENCONTRADO","IDENTIFICADO","PLAN_CNAE"
"COMERCIALIZACAO_PESCADOS",,"18.352.425/0001-25","LBN MARCARINI PESCADOS E GELO LTDA","COMERCIO DE PESCADO EM GERAL",28,"3520-5536","valmir@mulinari.cnt.br","ES",32,"VITORIA",320001,"VITORIA",3201,"CENTRAL ESPIRITO-SANTENSE",3203,"GUARAPARI",32010,"GUARAPARI",3202405,-20.67064,-40.50325,"AV PEDRO RAMOS, 311, S JUDAS TADEU, CEP: 29200700","ENCONTRADO","IDENTIFICADO","PLAN_CNAE"
"COMERCIALIZACAO_PESCADOS","LEO PESCADOS COMERCIO ATACADISTA LTDA","07.980.159/0001-69","LEO PESCADOS COMERCIO ATACADISTA LTDA","COMERCIO DE PESCADO EM GERAL",27,"33452759/33155038","kclm@ibest.com.br","ES",32,"VITORIA",320001,"VITORIA",3201,"CENTRAL ESPIRITO-SANTENSE",3203,"VITORIA",32009,"VITORIA",3205309,-20.31771,-40.30001,"R OSCAR PAULO DA SILVA, 396, JESUS DE NAZARETH, CEP: 29052000","NAO_ENCONTRADO","COORDENADA_APROXIMADA","PLAN_CNAE"
"COMERCIALIZACAO_PESCADOS","QUEST TRADING","12.518.648/0001-33","QUEST COMERCIO IMPORTACAO E EXPORTACAO EIRELI","COMERCIO DE PESCADO EM GERAL",27,"3223-8139","lucianpa@yahoo.com.br","ES",32,"COLATINA",320005,"COLATINA",3203,"NOROESTE ESPIRITO-SANTENSE",3201,"COLATINA",32003,"COLATINA",3201506,-19.51873,-40.64169,"AV SILVIO AVIDOS, 1500, SL 203, S SILVANO, CEP: 29703134","ENCONTRADO","IDENTIFICADO","PLAN_CNAE"
"COMERCIALIZACAO_PESCADOS","PESCADOS ZIP","17.084.798/0001-08","VILA RO INDUSTRIA E COMERCIO DE PESCADOS EIRELI","COMERCIO DE PESCADO EM GERAL",28,"35201785/35202327/33615539","processos@mrcontabil.cnt.br/ pescadoszip@gmail.com","ES",32,"VITORIA",320001,"VITORIA",3201,"CENTRAL ESPIRITO-SANTENSE",3203,"GUARAPARI",32010,"PIUMA",3204203,-20.84383,-40.74754,"R AUGUSTO DA C OLIVEIRA, 691, PAVMTODOIS, CENTRO, CEP: 29285000","NAO_ENCONTRADO","COORDENADA_APROXIMADA","PLAN_CNAE"
"COMERCIALIZACAO_PESCADOS","SILVA RIO REPRESENTACOES LTDA - REPRESENTANTE COSTA SUL PESCADOS",,,"COMERCIO DE PESCADO EM GERAL",21,"3686- 5181","costasulrio@costasul.com.br","ES",32,"VITORIA",320001,"VITORIA",3201,"CENTRAL ESPIRITO-SANTENSE",3203,"VITORIA",32009,"VITORIA",3205309,-20.28247,-40.29409,,"NAO_ENCONTRADO","COORDENADA_ADAPTADA","SEAFOOD BRASIL"
"COMERCIALIZACAO_PESCADOS","FRIOCENTER PESCADOS","08.829.450/0001-01","ATLANTA INDUSTRIA E COMERCIO LTDA","COMERCIO DE PESCADO EM GERAL",62,"3236-3300","contato@friocenterpescados.com.br / katia@friocenterpescados.com.br","GO",52,"GOIANIA",520001,"GOIANIA",5201,"CENTRO GOIANO",5203,"GOIANIA",52010,"APARECIDA DE GOIANIA",5201405,-16.80694,-49.26755,"RUA XAVIER DE ALMEIDA, ESQ. COM RUA 06, QD.26 LT.02, , CEP: 14 3382 3547","ENCONTRADO","IDENTIFICADO","SEAFOOD BRASIL"
"COMERCIALIZACAO_PESCADOS","FRUMAR - FRUTOS DO MAR","93.991.685/0007-51","FRUMAR FRUTOS DO MAR LTDA","COMERCIO DE PESCADO EM GERAL",51,"3561-2029","registro1@webperfect.com.br","GO",52,"GOIANIA",520001,"GOIANIA",5201,"CENTRO GOIANO",5203,"GOIANIA",52010,"GOIANIA",5201405,-16.72022,-49.30835,"RUA ESCOCIA, S/N, QUADRA 132 LOTE 09, JD EUROPA, CEP: 74330-300","NAO_ENCONTRADO","COORDENADA_APROXIMADA","SEAFOOD BRASIL"
"COMERCIALIZACAO_PESCADOS","WW REPRESENTACOES COMERCIAIS LTDA-ME - REPRESENTANTE COSTA SUL PESCADOS",,,"COMERCIO DE PESCADO EM GERAL",61,"3526-4909 / 99961-1016","wws@costasul.com.br","GO",52,"GOIANIA",520001,"GOIANIA",5201,"CENTRO GOIANO",5203,"GOIANIA",52010,"GOIANIA",5208707,-16.67359,-49.28453,,"NAO_ENCONTRADO","COORDENADA_ADAPTADA","SEAFOOD BRASIL"
"COMERCIALIZACAO_PESCADOS","RIBEIRO PESCADOS","12.143.838/0001-13","A M C RIBEIRO","COMERCIO DE PESCADO EM GERAL",99,"35211459/81319182",,"MA",21,"CAXIAS",210013,"CAXIAS",2103,"LESTE MARANHENSE",2104,"CAXIAS",21017,"CAXIAS",2103000,-4.86237,-43.36646,"R DJALMA MACHADO, 61, BOX 61 MERCADO CENTRAL, CENTRO, CEP: 65607040","NAO_ENCONTRADO","COORDENADA_APROXIMADA","PLAN_CNAE"
"COMERCIALIZACAO_PESCADOS","AUGU MARISCO COMERCIO","01.432.995/0001-22","AUGU MARISCO COMERCIO LTDA","COMERCIO DE PESCADO EM GERAL",98,"3222-4030","ribeirofilho1@hotmail.com","MA",21,"SAO LUIS",210001,"SAO LUIS",2101,"NORTE MARANHENSE",2101,"AGLOMERACAO URBANA DE SAO LUIS",21002,"SAO LUIS",2111300,-2.51466,-44.24213,"AV DANIEL DE LA TOUCHE, 1, LJ 7 SRAL CENTER, COHAMA, CEP: 65074115","NAO_ENCONTRADO","COORDENADA_APROXIMADA","PLAN_CNAE"
"COMERCIALIZACAO_PESCADOS","CARIMA FRUTOS DO MAR","23.680.197/0001-52","CARIMA FRUTOS DO MAR EIRELI","COMERCIO DE PESCADO EM GERAL",98,"3016-9710","carimafrutosdomar@hotmail.com","MA",21,"SAO LUIS",210001,"SAO LUIS",2101,"NORTE MARANHENSE",2101,"AGLOMERACAO URBANA DE SAO LUIS",21002,"RAPOSA",2109452,-2.45582,-44.15142,"AV PRINCIPAL, 35, CENTRO, CEP: 65138000","ENCONTRADO","IDENTIFICADO","PLAN_CNAE"
"COMERCIALIZACAO_PESCADOS","CARIMA PESCADOS","19.560.281/0001-65","CARIMA PESCADOS EIRELI","COMERCIO DE PESCADO EM GERAL",98,"99845-6736",,"MA",21,"SAO LUIS",210001,"SAO LUIS",2101,"NORTE MARANHENSE",2101,"AGLOMERACAO URBANA DE SAO LUIS",21002,"SAO LUIS",2111300,-2.50836,-44.24266,"AV DANIEL DE LA TOUCHE, 47, LJ 51, COHAMA, CEP: 65074115","ENCONTRADO","IDENTIFICADO","PLAN_CNAE"
"COMERCIALIZACAO_PESCADOS",,"03.172.102/0001-82","COOPERATIVA DE PESCADORES ARTESANAIS DE CARUTAPERA COOPEC","COMERCIO DE PESCADO EM GERAL",98,"3226-8898","ccopec_carutepera@hotmail.com","MA",21,"GOVERNADOR NUNES FREIRE",210011,"SANTA INES - BACABAL",2102,"OESTE MARANHENSE",2102,"GURUPI",21007,"CARUTAPERA",2102903,-1.20452,-46.01544,"R 1 DE AGOSTO, 6, STO ANTONIO, CEP: 65295000","ENCONTRADO","IDENTIFICADO","PLAN_CNAE"
"COMERCIALIZACAO_PESCADOS","COMERCIAL SANTOS","01.153.831/0001-66","D P DOS SANTOS FILHO","COMERCIO DE PESCADO EM GERAL",98,"3244-4496",,"MA",21,"SAO LUIS",210001,"SAO LUIS",2101,"NORTE MARANHENSE",2101,"AGLOMERACAO URBANA DE SAO LUIS",21002,"SAO JOSE DE RIBAMAR",2111201,-2.55542,-44.06178,"AV GARRASTAZU MEDICE, 939, CAMPINA, CEP: 65110000","ENCONTRADO","IDENTIFICADO","PLAN_CNAE"
"COMERCIALIZACAO_PESCADOS",,"12.022.198/0001-93","E C PAVAO COMERCIO","COMERCIO DE PESCADO EM GERAL",98,"3257-0582",,"MA",21,"CURURUPU",210008,"SAO LUIS",2101,"NORTE MARANHENSE",2101,"LITORAL OCIDENTAL MARANHENSE",21001,"CEDRAL",2103109,-1.99753,-44.53526,"R PETRONILIO, 5, CENTRO, CEP: 65260000","NAO_ENCONTRADO","MUNICIPIO","PLAN_CNAE"
"COMERCIALIZACAO_PESCADOS","DINHO PESCADO","22.151.325/0001-08","EDINALDO RIBEIRO QUEIROZ","COMERCIO DE PESCADO EM GERAL",98,"3229-0426",,"MA",21,"SAO LUIS",210001,"SAO LUIS",2101,"NORTE MARANHENSE",2101,"AGLOMERACAO URBANA DE SAO LUIS",21002,"RAPOSA",2109452,-2.45639,-44.15141,"AV PRINCIPAL, 108, CENTRO, CEP: 65138000","NAO_ENCONTRADO","COORDENADA_APROXIMADA","PLAN_CNAE"
"COMERCIALIZACAO_PESCADOS","F R PESCADOS","10.783.000/0001-69","F R REIS FILHO","COMERCIO DE PESCADO EM GERAL",98,"8802-0230",,"MA",21,"SAO LUIS",210001,"SAO LUIS",2101,"NORTE MARANHENSE",2101,"AGLOMERACAO URBANA DE SAO LUIS",21002,"SAO JOSE DE RIBAMAR",2111201,-2.55914,-44.06072,"AV GARRASTAZU MEDICE, 0, Q 4, CAMPINA, CEP: 65110000","NAO_ENCONTRADO","COORDENADA_APROXIMADA","PLAN_CNAE"
"COMERCIALIZACAO_PESCADOS",,"63.576.607/0001-34","I B LIMA COMERCIO","COMERCIO DE PESCADO EM GERAL",99,"35244153/35257582","rhodes.lucio@hotmail.com","MA",21,"IMPERATRIZ",210019,"IMPERATRIZ",2105,"OESTE MARANHENSE",2102,"IMPERATRIZ",21009,"IMPERATRIZ",2105302,-5.50170,-47.46994,"R F 7, 33, JD TROPICAL, CEP: 65910819","ENCONTRADO","IDENTIFICADO","PLAN_CNAE"
"COMERCIALIZACAO_PESCADOS","ALINALDO COMERCIO DE PESCADO","07.829.426/0001-00","I D R DE AZEVEDO","COMERCIO DE PESCADO EM GERAL",98,"3479-1349",,"MA",21,"TUTOIA - ARAIOSES",210007,"SAO LUIS",2101,"NORTE MARANHENSE",2101,"LENCOIS MARANHENSES",21004,"TUTOIA",2112506,-2.75917,-42.26735,"R JOSE PAULINO, 1079, A, BARRA, CEP: 65580000","NAO_ENCONTRADO","COORDENADA_APROXIMADA","PLAN_CNAE"
"COMERCIALIZACAO_PESCADOS","DIPESCA GELO E PESCADOS","01.356.263/0001-09","J F CANCIO","COMERCIO DE PESCADO EM GERAL",98,"3259-4558","edsonrodriguez@oi.com.br","MA",21,"PINHEIRO",210002,"SAO LUIS",2101,"OESTE MARANHENSE",2102,"GURUPI",21007,"TURIACU",2112407,-1.66915,-45.36900,"R JAMIL DAMOUS, 0, CENTRO, CEP: 65278000","NAO_ENCONTRADO","MUNICIPIO","PLAN_CNAE"
"COMERCIALIZACAO_PESCADOS","MARLIN PESCADOS","07.661.511/0001-01","J H P DUARTE COMERCIO","COMERCIO DE PESCADO EM GERAL",98,"3229-0426",,"MA",21,"SAO LUIS",210001,"SAO LUIS",2101,"NORTE MARANHENSE",2101,"AGLOMERACAO URBANA DE SAO LUIS",21002,"RAPOSA",2109452,-2.45639,-44.15141,"R PRINCIPAL, 22, CENTRO, CEP: 65138000","NAO_ENCONTRADO","COORDENADA_APROXIMADA","PLAN_CNAE"
"COMERCIALIZACAO_PESCADOS","DICOLAS PESCADOS E MARISCO","12.067.881/0001-47","J P DE BRITO & CIA LTDA","COMERCIO DE PESCADO EM GERAL",98,"99901-9467","gunga-melo21@hotmail.com","MA",21,"SAO LUIS",210001,"SAO LUIS",2101,"NORTE MARANHENSE",2101,"AGLOMERACAO URBANA DE SAO LUIS",21002,"SAO JOSE DE RIBAMAR",2111201,-2.52895,-44.18816,"AV DO FIO, 4, LETRA A, AT DO ITAPIRACO, CEP: 65110000","NAO_ENCONTRADO","COORDENADA_APROXIMADA","PLAN_CNAE"
"COMERCIALIZACAO_PESCADOS","J R COMERCIO","09.549.347/0001-62","J RIBAMAR TRINDADE","COMERCIO DE PESCADO EM GERAL",98,"3398-6020",,"MA",21,"CURURUPU",210008,"SAO LUIS",2101,"NORTE MARANHENSE",2101,"LITORAL OCIDENTAL MARANHENSE",21001,"CEDRAL",2103109,-2.00659,-44.51510,"R PETRONILIO, 33, OUTEIRO, CEP: 65260000","NAO_ENCONTRADO","COORDENADA_APROXIMADA","PLAN_CNAE"
"COMERCIALIZACAO_PESCADOS","FRANGO CAMPEAO","00.365.100/0001-11","JOSE COSTA MELO ACOUGUE","COMERCIO DE PESCADO EM GERAL",98,"3234-8569",,"MA",21,"SAO LUIS",210001,"SAO LUIS",2101,"NORTE MARANHENSE",2101,"AGLOMERACAO URBANA DE SAO LUIS",21002,"SAO JOSE DE RIBAMAR",2111201,-2.55536,-44.17374,"R S SEBASTIAO, 382, MAIOBINHA, CEP: 65110000","ENCONTRADO","IDENTIFICADO","PLAN_CNAE"
"COMERCIALIZACAO_PESCADOS","MARAZUL PESCADOS","17.701.257/0001-73","LAYANE SANTOS MACEDO","COMERCIO DE PESCADO EM GERAL",86,"32146507/32146516","deusiangelafiscal@gmail.com","MA",21,"TIMON",210014,"CAXIAS",2103,"LESTE MARANHENSE",2104,"CAXIAS",21017,"TIMON",2112209,-5.08969,-42.82499,"AV PIAUI, 231, SL A, CENTRO, CEP: 65630030","NAO_ENCONTRADO","COORDENADA_APROXIMADA","PLAN_CNAE"
"COMERCIALIZACAO_PESCADOS",,"10.492.694/0001-85","M & N COMERCIO DE PESCADOS LTDA","COMERCIO DE PESCADO EM GERAL",98,"87038220/33139603",,"MA",21,"SAO LUIS",210001,"SAO LUIS",2101,"NORTE MARANHENSE",2101,"AGLOMERACAO URBANA DE SAO LUIS",21002,"SAO JOSE DE RIBAMAR",2111201,-2.47724,-44.20166,"AV NEW YORK, 2, Q 12 CENTRAL PARK, ARACAGY, CEP: 65110000","NAO_ENCONTRADO","COORDENADA_APROXIMADA","PLAN_CNAE"
"COMERCIALIZACAO_PESCADOS","M A PESCADOS E MATERIAIS DE CONSTRUCAO","14.537.220/0001-63","M A PESCADOS E MATERIAIS DE CONSTRUCAO LTDA","COMERCIO DE PESCADO EM GERAL",98,"3259-4558","edsonrodriguez@oi.com.br","MA",21,"PINHEIRO",210002,"SAO LUIS",2101,"OESTE MARANHENSE",2102,"GURUPI",21007,"TURIACU",2112407,-1.66915,-45.36900,"R DA PRAIA, 6, CENTRO, CEP: 65278000","NAO_ENCONTRADO","MUNICIPIO","PLAN_CNAE"
"COMERCIALIZACAO_PESCADOS",,"10.490.163/0001-53","M A S DA SILVA","COMERCIO DE PESCADO EM GERAL",98,"3312-6188","aconta@superig.com.br","MA",21,"PINHEIRO",210002,"SAO LUIS",2101,"NORTE MARANHENSE",2101,"BAIXADA MARANHENSE",21005,"PINHEIRO",2108603,-2.52132,-45.08280,"R PROJETADA, 10, ALCANTARA, CEP: 65200000","NAO_ENCONTRADO","MUNICIPIO","PLAN_CNAE"
"COMERCIALIZACAO_PESCADOS","GRUPO KI PEIXE","27.489.450/0001-46","M P GOMES JUNIOR","COMERCIO DE PESCADO EM GERAL",98,"8780-1720","grupokipeixeatacado@gmail.com","MA",21,"SAO LUIS",210001,"SAO LUIS",2101,"NORTE MARANHENSE",2101,"AGLOMERACAO URBANA DE SAO LUIS",21002,"SAO LUIS",2111300,-2.62846,-44.26380,"R S LUIS, 12, CJ VILA INDUSTRIAL VL INDUSTRIAL, MARACANA, CEP: 65090780","NAO_ENCONTRADO","COORDENADA_APROXIMADA","PLAN_CNAE"
"COMERCIALIZACAO_PESCADOS","LEGIAO MARISCOS","18.604.109/0001-01","MULLER E LEITE LTDA","COMERCIO DE PESCADO EM GERAL",99,"8261-0007","muller.alimentos@hotmail.com","MA",21,"IMPERATRIZ",210019,"IMPERATRIZ",2105,"OESTE MARANHENSE",2102,"IMPERATRIZ",21009,"IMPERATRIZ",2105302,-5.51257,-47.47396,"R CEL MARIO ANDREAZA, 103, MARANHAO NOVO, CEP: 65903087","ENCONTRADO","IDENTIFICADO","PLAN_CNAE"
"COMERCIALIZACAO_PESCADOS","MARANHAO PESCADOS IMPORTACAO E EXPORTACAO","07.114.798/0001-41","NIREUS PESCADOS LTDA","COMERCIO DE PESCADO EM GERAL",98,"3304-2134","cadastro.hagnnus@gmail.com","MA",21,"SAO LUIS",210001,"SAO LUIS",2101,"NORTE MARANHENSE",2101,"AGLOMERACAO URBANA DE SAO LUIS",21002,"SAO LUIS",2111300,-2.66821,-44.29937,"V AC A EMILIANO MACIEIRA A BR, 135, ITAQUI PEDRINHAS 215, VL COLLIER, CEP: 65091695","NAO_ENCONTRADO","COORDENADA_APROXIMADA","PLAN_CNAE"
"COMERCIALIZACAO_PESCADOS",,"21.202.225/0001-09","NORFOODS COMERCIO DE ALIMENTOS LTDA","COMERCIO DE PESCADO EM GERAL",32,"32464362/32567998",,"MA",21,"SAO LUIS",210001,"SAO LUIS",2101,"NORTE MARANHENSE",2101,"AGLOMERACAO URBANA DE SAO LUIS",21002,"SAO LUIS",2111300,-2.51674,-44.25879,"AV JERONIMO DE ALBUQUERQUE MARANHAO, 53, LJ B 1 PAVILHAO BOX 1, COHAFUMA, CEP: 65071750","NAO_ENCONTRADO","COORDENADA_APROXIMADA","PLAN_CNAE"
"COMERCIALIZACAO_PESCADOS","ATACADO DO PEIXE","14.219.660/0001-72","OCEAN COMERCIO DE PESCADOS LTDA","COMERCIO DE PESCADO EM GERAL",98,"33452586/30821776","wmncontabilidade@hotmail.com","MA",21,"SAO LUIS",210001,"SAO LUIS",2101,"NORTE MARANHENSE",2101,"AGLOMERACAO URBANA DE SAO LUIS",21002,"SAO LUIS",2111300,-2.53270,-44.25750,"RTN DO ITAQUI, 215, BR 135 VL MARANHAO, ITAQUI, CEP: 65085380","NAO_ENCONTRADO","MUNICIPIO","PLAN_CNAE"
"COMERCIALIZACAO_PESCADOS",,"01.136.750/0007-43","QUALIMAR COMERCIO IMPORTACAO E EXPORTACAO LTDA EM RECUPERACAO JUDICIAL","COMERCIO DE PESCADO EM GERAL",98,"3224-0068",,"MA",21,"SAO LUIS",210001,"SAO LUIS",2101,"NORTE MARANHENSE",2101,"AGLOMERACAO URBANA DE SAO LUIS",21002,"SAO JOSE DE RIBAMAR",2111201,-2.55962,-44.06055,"AV GARRASTAZU MEDICE, 449, CAMPINA, CEP: 65110000","ENCONTRADO","IDENTIFICADO","PLAN_CNAE"
"COMERCIALIZACAO_PESCADOS",,"06.368.442/0001-71","S DE FATIMA ALMEIDA CAXIAS","COMERCIO DE PESCADO EM GERAL",98,"33961200/33961209/33961059","sueli@bol.com.br","MA",21,"GOVERNADOR NUNES FREIRE",210011,"SANTA INES - BACABAL",2102,"OESTE MARANHENSE",2102,"GURUPI",21007,"CANDIDO MENDES",2102606,-1.45253,-45.72923,"R 2 DE NOVEMBRO, 320, A, AVIACAO, CEP: 65280000","ENCONTRADO","IDENTIFICADO","PLAN_CNAE"
"COMERCIALIZACAO_PESCADOS","VALE VERDE ALIMENTACAO","02.081.113/0001-94","SINVAL EVANGELISTA MOREIRA","COMERCIO DE PESCADO EM GERAL",98,"3312-6188","aconta@superig.com.br","MA",21,"PINHEIRO",210002,"SAO LUIS",2101,"NORTE MARANHENSE",2101,"BAIXADA MARANHENSE",21005,"PINHEIRO",2108603,-2.52132,-45.08280,"EST NOVA, 10, EST NOVA, CEP: 65200000","NAO_ENCONTRADO","MUNICIPIO","PLAN_CNAE"
"COMERCIALIZACAO_PESCADOS","BRESSAM & SOARES REPRESENTACOES LTDA - REPRESENTANTE COSTA SUL PESCADOS",,,"COMERCIO DE PESCADO EM GERAL",85,"99989-9001/ 99953-8779/ 3278-1397","ics@costasul.com.br","MA",21,"SAO LUIS",210001,"SAO LUIS",2101,"NORTE MARANHENSE",2101,"AGLOMERACAO URBANA DE SAO LUIS",21002,"SAO LUIS",2111300,-2.54229,-44.27578,,"NAO_ENCONTRADO","COORDENADA_ADAPTADA","SEAFOOD BRASIL"
"COMERCIALIZACAO_PESCADOS","AQUABRASIL PESCADOS","22.870.910/0001-68","AQUABRASIL COMERCIO DE PESCADOS E FRUTOS DO MAR LTDA","COMERCIO DE PESCADO EM GERAL",83,"3513-7005","processosjp@pontual.cnt.br","PB",25,"JOAO PESSOA",250001,"JOAO PESSOA",2501,"MATA PARAIBANA",2504,"JOAO PESSOA",25022,"CABEDELO",2503209,-7.06940,-34.85238,"AV STA PAULA, 308, Q C LT 7, RENASCER, CEP: 58108042","ENCONTRADO","IDENTIFICADO","PLAN_CNAE"
"COMERCIALIZACAO_PESCADOS","BOMPESCADO","21.018.537/0001-59","BOMPESCADO COMERCIO DE PESCADO LTDA","COMERCIO DE PESCADO EM GERAL",83,"3321-8325","jcleomar@veloxmail.com.br","PB",25,"CAMPINA GRANDE",250005,"CAMPINA GRANDE",2502,"AGRESTE PARAIBANO",2503,"CAMPINA GRANDE",25017,"CAMPINA GRANDE",2504009,-7.20283,-35.87916,"R DR VASCONCELOS, 988, LJ 10 BL AMP EMPASA, AT BRANCO, CEP: 58401624","ENCONTRADO","IDENTIFICADO","PLAN_CNAE"
"COMERCIALIZACAO_PESCADOS","PEIXE & CIA","02.761.656/0001-52","COMERCIAL DE PESCADOS SANTA MARIA LTDA","COMERCIO DE PESCADO EM GERAL",,,,"PB",25,"JOAO PESSOA",250001,"JOAO PESSOA",2501,"MATA PARAIBANA",2504,"JOAO PESSOA",25022,"CABEDELO",2503209,-7.03850,-34.84612,"TV MIRAMAR, 193, PNT DE MATOS, CEP: 58100552","NAO_ENCONTRADO","MUNICIPIO","PLAN_CNAE"
"COMERCIALIZACAO_PESCADOS",,"08.603.334/0001-61","COMPAL COMERCIO DE HORTIFRUTIGRANJEIROS LTDA","COMERCIO DE PESCADO EM GERAL",83,"999833777/32319900/32224583",,"PB",25,"JOAO PESSOA",250001,"JOAO PESSOA",2501,"MATA PARAIBANA",2504,"JOAO PESSOA",25022,"JOAO PESSOA",2507507,-7.16748,-34.86584,"R PRES RANIERI MAZILLI, 0, BL AML LJ 1 C, CRISTO REDENTOR, CEP: 58071000","NAO_ENCONTRADO","COORDENADA_APROXIMADA","PLAN_CNAE"
"COMERCIALIZACAO_PESCADOS","DISTRIBUIDORA DE ALIMENTOS ALIANCA","20.392.003/0001-25","DISTRIBUIDORA DE ALIMENTOS ALIANCA EIRELI","COMERCIO DE PESCADO EM GERAL",,,,"PB",25,"JOAO PESSOA",250001,"JOAO PESSOA",2501,"MATA PARAIBANA",2504,"JOAO PESSOA",25022,"JOAO PESSOA",2507507,-7.16730,-34.86514,"R PRES RANIERI MAZILLI, 0, GALPAOBSV BOX 3, CRISTO REDENTOR, CEP: 58071000","ENCONTRADO","IDENTIFICADO","PLAN_CNAE"
"COMERCIALIZACAO_PESCADOS","FRIOPESCA","04.467.011/0001-37","FRIOPESCA LTDA","COMERCIO DE PESCADO EM GERAL",,,,"PB",25,"JOAO PESSOA",250001,"JOAO PESSOA",2501,"MATA PARAIBANA",2504,"JOAO PESSOA",25022,"JOAO PESSOA",2507507,-7.16730,-34.86514,"R PRES RANIERI MAZILLI, 0, BOXE 26 A 32 EMPASA, CRISTO REDENTOR, CEP: 58071000","ENCONTRADO","IDENTIFICADO","PLAN_CNAE"
"COMERCIALIZACAO_PESCADOS",,"12.986.375/0003-13","MS PESCADOS COMERCIO IMPORTACAO E EXPORTACAO S A","COMERCIO DE PESCADO EM GERAL",81,"2123-7000",,"PB",25,"JOAO PESSOA",250001,"JOAO PESSOA",2501,"MATA PARAIBANA",2504,"LITORAL SUL",25023,"PITIMBU",2511905,-7.54733,-34.82953,"R DA PONTINHA, 0, SL B, ACAU, CEP: 58324000","NAO_ENCONTRADO","COORDENADA_APROXIMADA","PLAN_CNAE"
"COMERCIALIZACAO_PESCADOS","PESCADOS CRUZ","13.507.342/0001-44","PESCADOS CRUZ LTDA","COMERCIO DE PESCADO EM GERAL",83,"999833777/32319900/32224583",,"PB",25,"JOAO PESSOA",250001,"JOAO PESSOA",2501,"MATA PARAIBANA",2504,"JOAO PESSOA",25022,"JOAO PESSOA",2507507,-7.16748,-34.86584,"R PRES RANIERI MAZILLI, 0, GALPAOGPC LJ 13, CRISTO REDENTOR, CEP: 58071000","NAO_ENCONTRADO","COORDENADA_APROXIMADA","PLAN_CNAE"
"COMERCIALIZACAO_PESCADOS","PESCADOS FRIO SUL","17.010.321/0001-70","PESCADOS FRIO SUL EIRELI","COMERCIO DE PESCADO EM GERAL",83,"32284010/32282221/32281038",,"PB",25,"JOAO PESSOA",250001,"JOAO PESSOA",2501,"MATA PARAIBANA",2504,"JOAO PESSOA",25022,"CABEDELO",2503209,-7.01135,-34.83232,"ROD BR 230, 0, KM 5 5026 LT 1 Q 2 LT JARDIM ATLANTICO, CAMBOINHA I, CEP: 58100100","ENCONTRADO","IDENTIFICADO","PLAN_CNAE"
"COMERCIALIZACAO_PESCADOS","PRIME IMPORTACAO E EXPORTACAO S A","15.452.593/0004-47","PRIME SEAFOOD LTDA","COMERCIO DE PESCADO EM GERAL",83,"3048-4243","anamaria@prime.trd.br","PB",25,"JOAO PESSOA",250001,"JOAO PESSOA",2501,"MATA PARAIBANA",2504,"LITORAL SUL",25023,"PITIMBU",2511905,-7.43130,-34.90992,"R PROJETADA 5, 86, A SL A LT 9 QUADRAK, LOT PONTINHA, CEP: 58324000","NAO_ENCONTRADO","COORDENADA_APROXIMADA","PLAN_CNAE"
"COMERCIALIZACAO_PESCADOS","QUALIMAR PESCADOS","01.136.750/0009-05","QUALIMAR COMERCIO IMPORTACAO E EXPORTACAO LTDA EM RECUPERACAO JUDICIAL","COMERCIO DE PESCADO EM GERAL",81,"2123-7000",,"PB",25,"JOAO PESSOA",250001,"JOAO PESSOA",2501,"MATA PARAIBANA",2504,"LITORAL SUL",25023,"PITIMBU",2511905,-7.54733,-34.82953,"R DA PONTINHA, 0, SL A, ACAU, CEP: 58324000","NAO_ENCONTRADO","COORDENADA_APROXIMADA","PLAN_CNAE"
"COMERCIALIZACAO_PESCADOS","CORREA SANTOS REPRESENTACOES LTDA  - REPRESENTANTE COSTA SUL PESCADOS",,,"COMERCIO DE PESCADO EM GERAL",81,"3254-3087/ 98875-2221","correasantos@costasul.com.br","PB",25,"JOAO PESSOA",250001,"JOAO PESSOA",2501,"MATA PARAIBANA",2504,"JOAO PESSOA",25022,"JOAO PESSOA",2507507,-7.11924,-34.87131,,"NAO_ENCONTRADO","COORDENADA_ADAPTADA","SEAFOOD BRASIL"
"COMERCIALIZACAO_PESCADOS",,"10.864.037/0001-11","AGUA VIVA PESCADOS LTDA","COMERCIO DE PESCADO EM GERAL",81,"994093935/34263980/34262381/34266347/32412102",,"PE",26,"RECIFE",260001,"RECIFE",2601,"METROPOLITANA DE RECIFE",2605,"RECIFE",26017,"OLINDA",2609600,-8.02852,-34.86720,"R FELISMINA PEREIRA, 342, A, SALGADINHO, CEP: 53110640","ENCONTRADO","NAO_IDENTIFICADO","PLAN_CNAE"
"COMERCIALIZACAO_PESCADOS",,"05.574.041/0003-77","AMAZONAS INDUSTRIAS ALIMENTICIAS S A AMASA","COMERCIO DE PESCADO EM GERAL",91,"3258-0577","amasa@amasa.com.br","PE",26,"RECIFE",260001,"RECIFE",2601,"METROPOLITANA DE RECIFE",2605,"RECIFE",26017,"RECIFE",2611606,-8.11629,-34.90261,"R PE CARAPUCEIRO, 858, SL 701 EMP CICERO DIAS CJ 711, BOA VIAGEM, CEP: 51020280","ENCONTRADO","IDENTIFICADO","PLAN_CNAE"
"COMERCIALIZACAO_PESCADOS",,"03.724.494/0001-45","ANDRE L R RAMOS","COMERCIO DE PESCADO EM GERAL",81,"34715975/33383180/34713899",,"PE",26,"RECIFE",260001,"RECIFE",2601,"METROPOLITANA DE RECIFE",2605,"RECIFE",26017,"RECIFE",2611606,-8.11937,-34.92113,"AV RECIFE, 1126, IMBIRIBEIRA, CEP: 51190730","NAO_ENCONTRADO","COORDENADA_APROXIMADA","PLAN_CNAE"
"COMERCIALIZACAO_PESCADOS",,"24.408.163/0001-76","AREMAR COMERCIO E REPRESENTACAO DE PESCADOS LTDA","COMERCIO DE PESCADO EM GERAL",81,"30800921/998880741","astercom.com@gmail.com","PE",26,"RECIFE",260001,"RECIFE",2601,"METROPOLITANA DE RECIFE",2605,"RECIFE",26017,"RECIFE",2611606,-8.06828,-34.87638,"CAIS STA RITA, 176, STO ANTONIO, CEP: 50020665","ENCONTRADO","IDENTIFICADO","PLAN_CNAE"
"COMERCIALIZACAO_PESCADOS","ATACADO DO PEIXE","02.711.381/0001-42","ATACADO DO PEIXE LTDA","COMERCIO DE PESCADO EM GERAL",81,"32216828/32241540/34630340/34630186/34247427","victoria_cont@hotmail.com","PE",26,"RECIFE",260001,"RECIFE",2601,"METROPOLITANA DE RECIFE",2605,"RECIFE",26017,"RECIFE",2611606,-8.07186,-34.88342,"CAIS STA RITA, 0, ARMZ 15 SL A, S JOSE, CEP: 50020705","NAO_ENCONTRADO","COORDENADA_APROXIMADA","PLAN_CNAE"
"COMERCIALIZACAO_PESCADOS","NORONHA PESCADOS","02.279.718/0003-56","BLANKE INDUSTRIA DE PESCADO LTDA","COMERCIO DE PESCADO EM GERAL",81,"3428-3067 / 2138-9100 /2138-9135",,"PE",26,"RECIFE",260001,"RECIFE",2601,"METROPOLITANA DE RECIFE",2605,"RECIFE",26017,"RECIFE",2611606,-8.07079,-34.98561,"RUA HISTO LUIS DE NASCIMENTO, 450, VARZEA, CEP: 50950-200","ENCONTRADO","IDENTIFICADO","SEAFOOD BRASIL"
"COMERCIALIZACAO_PESCADOS",,"05.399.489/0004-82","BRASCOD COMERCIO IMPORTACAO E EXPORTACAO LTDA","COMERCIO DE PESCADO EM GERAL",81,"2125-6400","legalizacoes@dataconte.com.br","PE",26,"RECIFE",260001,"RECIFE",2601,"METROPOLITANA DE RECIFE",2605,"RECIFE",26017,"RECIFE",2611606,-8.11589,-34.90351,"R PE CARAPUCEIRO, 968, SL 308 ED CENTRO EMPRESARIAL JANETE COSTA, BOA VIAGEM, CEP: 51020280","ENCONTRADO","IDENTIFICADO","PLAN_CNAE"
"COMERCIALIZACAO_PESCADOS","AZEVEDO PESCADOS","11.009.656/0001-91","C M AZEVEDO PESCADOS LTDA","COMERCIO DE PESCADO EM GERAL",81,"3053-1675",,"PE",26,"RECIFE",260001,"RECIFE",2601,"METROPOLITANA DE RECIFE",2605,"RECIFE",26017,"RECIFE",2611606,-8.07443,-34.94626,"ROD BR 101 SUL, 550, KM 70 CABEC SUL G UCE 2, CURADO, CEP: 50790640","ENCONTRADO","IDENTIFICADO","PLAN_CNAE"
"COMERCIALIZACAO_PESCADOS","SILVEIRA DISTRIBUIDORA DE ALIMENTOS","04.431.831/0001-79","CLAUMAN & SILVEIRA DISTRIBUIDORA DE ALIMENTOS E TERCEIRIZA","COMERCIO DE PESCADO EM GERAL",81,"33411541/986939974/34245011/32550038/34251896","clovisblima@ig.com.br/ clovisblima@hotmail.com","PE",26,"RECIFE",260001,"RECIFE",2601,"METROPOLITANA DE RECIFE",2605,"RECIFE",26017,"RECIFE",2611606,-8.06977,-34.98507,"R PROF NESTOR BEZERRA, 186, SL 4 A, VARZEA, CEP: 50950150","NAO_ENCONTRADO","COORDENADA_APROXIMADA","PLAN_CNAE"
"COMERCIALIZACAO_PESCADOS","CORREA SANTOS REPRESENTACOES","11.639.686/0001-81","CORREA SANTOS REPRESENTACOES DE PESCADOS E FRUTOS DO MAR LTDA","COMERCIO DE PESCADO EM GERAL",81,"3254-3087/ 3012-1414 / 98875-2221","correasantos@costasul.com.br / businesscontabilidade@bol.com.br","PE",26,"RECIFE",260001,"RECIFE",2601,"METROPOLITANA DE RECIFE",2605,"RECIFE",26017,"RECIFE",2611606,-8.03918,-34.91906,"R DOUTOR LUIZ RIBEIRO BASTOS, 51, CXPST 79, POCO, CEP: 52.060-490","ENCONTRADO","NAO_IDENTIFICADO","SEAFOOD BRASIL"
"COMERCIALIZACAO_PESCADOS","ROBERTO PESCADO","15.633.269/0001-82","CRISTINE COSTA MACIEL","COMERCIO DE PESCADO EM GERAL",81,"3031-6228","isaacalves.lima@gmail.com","PE",26,"RECIFE",260001,"RECIFE",2601,"METROPOLITANA DE RECIFE",2605,"RECIFE",26017,"JABOATAO DOS GUARARAPES",2607901,-8.18884,-34.92423,"R CEL DARIO FERRAZ DE SA, 60, LJ B, PIEDADE, CEP: 54410290","NAO_ENCONTRADO","COORDENADA_APROXIMADA","PLAN_CNAE"
"COMERCIALIZACAO_PESCADOS","PEIXARIA DO GERA","01.082.018/0001-42","DISK PEIXE LTDA","COMERCIO DE PESCADO EM GERAL",81,"34351778/34366839/34363756/34363690/32270181",,"PE",26,"RECIFE",260001,"RECIFE",2601,"METROPOLITANA DE RECIFE",2605,"RECIFE",26017,"PAULISTA",2610707,-7.91975,-34.82122,"AV DR CLAUDIO JOSE GUEIROS LEITE, 4363, JANGA, CEP: 53435000","ENCONTRADO","IDENTIFICADO","PLAN_CNAE"
"COMERCIALIZACAO_PESCADOS","TUDO DO MAR PESCADOS","09.257.917/0001-40","EPITACIO PESCADOS IMPORTADORA LTDA","COMERCIO DE PESCADO EM GERAL",81,"34623273/34723121/30315560/33391951/34723631","alexandre@tudodomar.com.br","PE",26,"RECIFE",260001,"RECIFE",2601,"METROPOLITANA DE RECIFE",2605,"RECIFE",26017,"RECIFE",2611606,-8.11102,-34.91489,"R ITACARE, 271, IMBIRIBEIRA, CEP: 51200100","ENCONTRADO","IDENTIFICADO","PLAN_CNAE"
